commune,Population,region,Latitude,Longitude
Tanger,1275428.0,Région de Tanger-Tétouan-Al Hoceima,35.7696302,-5.8033522
Assilah,36039.0,Région de Tanger-Tétouan-Al Hoceima,35.461928,-6.036545
Gueznaia,88676.0,Région de Tanger-Tétouan-Al Hoceima,35.703352,-5.887293
Hjar Ennhal,27204.0,Région de Tanger-Tétouan-Al Hoceima,35.6372626,-5.897040664447673
Dar Chaoui,4471.0,Région de Tanger-Tétouan-Al Hoceima,35.5327437,-5.7181352
Al Manzla,2680.0,Région de Tanger-Tétouan-Al Hoceima,35.549240350000005,-5.864878762227429
Laaouama,19187.0,Région de Tanger-Tétouan-Al Hoceima,35.724696,-5.798495
Aquouass Briech,4981.0,Région de Tanger-Tétouan-Al Hoceima,35.5523249,-5.956496134048544
Had Al Gharbia,12838.0,Région de Tanger-Tétouan-Al Hoceima,35.5153823,-5.9304923
Sahel Chamali,5028.0,Région de Tanger-Tétouan-Al Hoceima,35.3850024,-6.052684110217392
Sidi Lyamani,10616.0,Région de Tanger-Tétouan-Al Hoceima,35.3670419,-5.9731159
M'diq,67599.0,Région de Tanger-Tétouan-Al Hoceima,35.6833598,-5.3232161
Fnideq,77250.0,Région de Tanger-Tétouan-Al Hoceima,35.8392089,-5.3614246
Martil,95896.0,Région de Tanger-Tétouan-Al Hoceima,35.617441,-5.274154
Allyene,8111.0,Région de Tanger-Tétouan-Al Hoceima,35.727814800000004,-5.415310158583102
Belyounech,5208.0,Région de Tanger-Tétouan-Al Hoceima,35.9062644,-5.3921994
Tétouan,422757.0,Région de Tanger-Tétouan-Al Hoceima,35.570175,-5.3742776
Oued Laou,11690.0,Région de Tanger-Tétouan-Al Hoceima,35.450492,-5.093029
Souk Kdim,8699.0,Région de Tanger-Tétouan-Al Hoceima,35.6055948,-5.535709903556427
Jbel Lahbib,4126.0,Région de Tanger-Tétouan-Al Hoceima,35.457323349999996,-5.78241357395313
Bni Harchen,6423.0,Région de Tanger-Tétouan-Al Hoceima,35.521765349999995,-5.658482623748618
Al Kharroub,2099.0,Région de Tanger-Tétouan-Al Hoceima,35.40642795,-5.699808306067317
Mallalienne,10874.0,Région de Tanger-Tétouan-Al Hoceima,35.6263117,-5.3415171
Saddina,7619.0,Région de Tanger-Tétouan-Al Hoceima,35.6299587,-5.45270153318026
Sahtryine,8733.0,Région de Tanger-Tétouan-Al Hoceima,35.48728785,-5.479902604483775
Bni Idder,4659.0,Région de Tanger-Tétouan-Al Hoceima,35.3985896,-5.5120689
Bghaghza,6238.0,Région de Tanger-Tétouan-Al Hoceima,35.4344251,-5.6455142
Bni Leit,5004.0,Région de Tanger-Tétouan-Al Hoceima,35.302386299999995,-5.41804886531218
Al Hamra,11877.0,Région de Tanger-Tétouan-Al Hoceima,35.3492696,-5.356837858773961
Al Oued,10875.0,Région de Tanger-Tétouan-Al Hoceima,35.2636424,-5.2296818
Oulad Ali Mansour,4683.0,Région de Tanger-Tétouan-Al Hoceima,35.3599496,-5.23777498597923
Dar Bni Karrich,10115.0,Région de Tanger-Tétouan-Al Hoceima,35.5320522,-5.4286143
Zinat,8214.0,Région de Tanger-Tétouan-Al Hoceima,35.470837,-5.401753
Azla,22985.0,Région de Tanger-Tétouan-Al Hoceima,35.52946405,-5.2856357230776005
Zaitoune,13492.0,Région de Tanger-Tétouan-Al Hoceima,35.5213825,-5.3408153
Bni Said,10465.0,Région de Tanger-Tétouan-Al Hoceima,35.4205943,-5.172401134312382
Zaouiat Sidi Kacem,12851.0,Région de Tanger-Tétouan-Al Hoceima,35.475795899999994,-5.220564780308216
Malloussa,18854.0,Région de Tanger-Tétouan-Al Hoceima,35.7316223,-5.637612800297975
Al Bahraoyine,15491.0,Région de Tanger-Tétouan-Al Hoceima,35.7571242,-5.70373355974902
Ksar Sghir,17125.0,Région de Tanger-Tétouan-Al Hoceima,35.800628450000005,-5.626159048891454
Jouamaa,10039.0,Région de Tanger-Tétouan-Al Hoceima,35.6463617,-5.643883189220032
Anjra,17251.0,Région de Tanger-Tétouan-Al Hoceima,35.69104645,-5.528841918011793
Taghramt,9326.0,Région de Tanger-Tétouan-Al Hoceima,35.807911250000004,-5.44493806839781
Ksar El Majaz,12703.0,Région de Tanger-Tétouan-Al Hoceima,35.824598699999996,-5.530979809616738
Ksar El Kebir,124701.0,Région de Tanger-Tétouan-Al Hoceima,34.999218,-5.898724
Larache,133731.0,Région de Tanger-Tétouan-Al Hoceima,35.1952327,-6.152913
Laouamra,48253.0,Région de Tanger-Tétouan-Al Hoceima,35.067151,-6.088657
Zouada,25289.0,Région de Tanger-Tétouan-Al Hoceima,35.047012,-6.058477
Ksar Bjir,17182.0,Région de Tanger-Tétouan-Al Hoceima,34.9759696,-5.8784981
Tatoft,8657.0,Région de Tanger-Tétouan-Al Hoceima,34.983483750000005,-5.7530250350087435
Souk L'qolla,13592.0,Région de Tanger-Tétouan-Al Hoceima,35.1119923,-5.606804831671468
Bni Arouss,7337.0,Région de Tanger-Tétouan-Al Hoceima,35.3166047,-5.636242276924705
Tazroute,5449.0,Région de Tanger-Tétouan-Al Hoceima,35.2629654,-5.5452201
Ayacha,6925.0,Région de Tanger-Tétouan-Al Hoceima,35.388177,-5.895669
Bni Garfett,11311.0,Région de Tanger-Tétouan-Al Hoceima,35.257308,-5.832411
Zaaroura,8615.0,Région de Tanger-Tétouan-Al Hoceima,35.240502,-5.735957
Sahel,18258.0,Région de Tanger-Tétouan-Al Hoceima,35.2560629,-3.7568093
Rissana Chamalia,12961.0,Région de Tanger-Tétouan-Al Hoceima,35.26467255,-5.940627816046998
Rissana Janoubia,19480.0,Région de Tanger-Tétouan-Al Hoceima,35.1714492,-5.961023810629516
Oulad Ouchih,13409.0,Région de Tanger-Tétouan-Al Hoceima,35.06815345,-5.950845572462166
Souaken,12582.0,Région de Tanger-Tétouan-Al Hoceima,35.121032,-5.953751
Souk Tolba,12855.0,Région de Tanger-Tétouan-Al Hoceima,35.075603150000006,-5.8571970866931355
Al Hoceima,50225.0,Région de Tanger-Tétouan-Al Hoceima,35.245114,-3.930186
Bni Bouayach,20013.0,Région de Tanger-Tétouan-Al Hoceima,35.102236,-3.841024
Imzouren,34848.0,Région de Tanger-Tétouan-Al Hoceima,35.1462944,-3.8497277
Targuist,14638.0,Région de Tanger-Tétouan-Al Hoceima,34.939869,-4.320451
Ajdir,5630.0,Région de Tanger-Tétouan-Al Hoceima,34.76709795,-3.934547135990813
Bni Boufrah,8401.0,Région de Tanger-Tétouan-Al Hoceima,35.0702783,-4.293097628179986
Senada,8059.0,Région de Tanger-Tétouan-Al Hoceima,35.079952,-4.215103
Bni Gmil Maksouline,7214.0,Région de Tanger-Tétouan-Al Hoceima,35.0033727,-4.4593064
Bni Gmil,7752.0,Région de Tanger-Tétouan-Al Hoceima,35.0843944,-4.3860609
Chakrane,3306.0,Région de Tanger-Tétouan-Al Hoceima,34.9106944,-3.9842710984938687
Arbaa Taourirt,3799.0,Région de Tanger-Tétouan-Al Hoceima,34.9319063,-3.8358492
Tifarouine,3318.0,Région de Tanger-Tétouan-Al Hoceima,35.025407799999996,-3.8957058227930847
Nekkour,7721.0,Région de Tanger-Tétouan-Al Hoceima,35.0152979,-3.8491728171178083
Ait Youssef Ou Ali,13830.0,Région de Tanger-Tétouan-Al Hoceima,35.1658927,-3.8950035450352853
Louta,4408.0,Région de Tanger-Tétouan-Al Hoceima,35.1106162,-3.889094
Imrabten,6983.0,Région de Tanger-Tétouan-Al Hoceima,35.0464725,-3.9655279604358005
Zaouiat Sidi Abdelkader,4150.0,Région de Tanger-Tétouan-Al Hoceima,34.9169677,-4.1286466
Bni Hadifa,4723.0,Région de Tanger-Tétouan-Al Hoceima,34.9959722,-4.187583706464574
Bni Abdellah,4939.0,Région de Tanger-Tétouan-Al Hoceima,35.0393452,-4.0650529826402
Izemmouren,6365.0,Région de Tanger-Tétouan-Al Hoceima,35.186229,-3.994415
Ait Kamra,8269.0,Région de Tanger-Tétouan-Al Hoceima,35.1434894,-3.9877266
Rouadi,6858.0,Région de Tanger-Tétouan-Al Hoceima,35.16072265,-4.172078407139621
Sidi Bouzineb,2756.0,Région de Tanger-Tétouan-Al Hoceima,34.8280918,-4.1005319
Bni Ammart,5583.0,Région de Tanger-Tétouan-Al Hoceima,34.8118942,-4.1581029
Sidi Boutmim,8462.0,Région de Tanger-Tétouan-Al Hoceima,34.9438831,-4.2931355
Zarkt,5601.0,Région de Tanger-Tétouan-Al Hoceima,34.9110821,-4.309755
Bni Bchir,5401.0,Région de Tanger-Tétouan-Al Hoceima,34.7775155,-4.3155163
Bni Bounsar,6498.0,Région de Tanger-Tétouan-Al Hoceima,34.8445768,-4.4229656
Bni Ahmed Imoukzan,7580.0,Région de Tanger-Tétouan-Al Hoceima,34.7829613,-4.4604307
Tamsaout,12856.0,Région de Tanger-Tétouan-Al Hoceima,34.8263454,-4.7530035
Ketama,16690.0,Région de Tanger-Tétouan-Al Hoceima,34.8763848,-4.6195339
Moulay Ahmed Cherif,9357.0,Région de Tanger-Tétouan-Al Hoceima,34.9407769,-4.4619184
Issaguen,17834.0,Région de Tanger-Tétouan-Al Hoceima,34.916794,-4.569654
Bni Bouchibet,8909.0,Région de Tanger-Tétouan-Al Hoceima,34.7115072,-4.5200998
Taghzout,4116.0,Région de Tanger-Tétouan-Al Hoceima,34.76669,-4.525471
Abdelghaya Souahel,24435.0,Région de Tanger-Tétouan-Al Hoceima,34.785784,-4.633549593255147
Chefchaouen,46168.0,Région de Tanger-Tétouan-Al Hoceima,35.1700832,-5.2766582971063976
Bab Berred,24743.0,Région de Tanger-Tétouan-Al Hoceima,34.998897,-4.890298
Iounane,19494.0,Région de Tanger-Tétouan-Al Hoceima,35.0298158,-4.8125225
Tamorot,24258.0,Région de Tanger-Tétouan-Al Hoceima,34.937876,-4.779141
Amtar,8568.0,Région de Tanger-Tétouan-Al Hoceima,35.2415471,-4.7943096
M'tioua,10336.0,Région de Tanger-Tétouan-Al Hoceima,35.1418341,-4.572804444314895
Ouaouzgane,12766.0,Région de Tanger-Tétouan-Al Hoceima,35.019484,-4.518036
Bni Rzine,16539.0,Région de Tanger-Tétouan-Al Hoceima,35.010837,-4.726992
Bni Smih,13918.0,Région de Tanger-Tétouan-Al Hoceima,35.1381479,-4.7073276
Bni Ahmed Cherqia,10800.0,Région de Tanger-Tétouan-Al Hoceima,34.8487689,-5.0758029
Bni Ahmed Gharbia,10623.0,Région de Tanger-Tétouan-Al Hoceima,34.8160628,-5.1095066
Oued Malha,12075.0,Région de Tanger-Tétouan-Al Hoceima,34.923362,-5.044765
Mansoura,13526.0,Région de Tanger-Tétouan-Al Hoceima,34.8359972,-4.9655415
Bab Taza,29895.0,Région de Tanger-Tétouan-Al Hoceima,35.061606,-5.197079
Bni Salah,10535.0,Région de Tanger-Tétouan-Al Hoceima,34.996179,-5.043536
Bni Darkoul,13984.0,Région de Tanger-Tétouan-Al Hoceima,35.056883,-5.066436
Bni Faghloum,9260.0,Région de Tanger-Tétouan-Al Hoceima,34.8952161,-5.1547878
Fifi,6762.0,Région de Tanger-Tétouan-Al Hoceima,34.9466994,-5.2421909
Derdara,11276.0,Région de Tanger-Tétouan-Al Hoceima,35.110272,-5.2871588
Tanaqoub,8097.0,Région de Tanger-Tétouan-Al Hoceima,35.103895,-5.458913
Laghdir,6454.0,Région de Tanger-Tétouan-Al Hoceima,35.0374573,-5.378492952981656
Bni Selmane,21413.0,Région de Tanger-Tétouan-Al Hoceima,35.113643,-4.9688019
Bni Mansour,16660.0,Région de Tanger-Tétouan-Al Hoceima,35.1586009,-4.9127137
Bni Bouzra,15888.0,Région de Tanger-Tétouan-Al Hoceima,35.325853,-4.947658
Steha,11452.0,Région de Tanger-Tétouan-Al Hoceima,35.345994,-4.956989
Tizgane,12292.0,Région de Tanger-Tétouan-Al Hoceima,35.37313605,-5.036787884083811
Tassift,6924.0,Région de Tanger-Tétouan-Al Hoceima,35.3058832,-5.143391111342483
Talambote,8007.0,Région de Tanger-Tétouan-Al Hoceima,35.250661,-5.182024
Ouezzane,57737.0,Région de Tanger-Tétouan-Al Hoceima,34.8071502,-5.5760934
Mzefroune,6226.0,Région de Tanger-Tétouan-Al Hoceima,34.8533123,-5.724561104281789
Masmouda,14594.0,Région de Tanger-Tétouan-Al Hoceima,34.786229,-5.707764
Sidi Redouane,17903.0,Région de Tanger-Tétouan-Al Hoceima,34.684499,-5.44819
Bni Quolla,13551.0,Région de Tanger-Tétouan-Al Hoceima,34.738018,-5.5441052
Teroual,11673.0,Région de Tanger-Tétouan-Al Hoceima,34.674777,-5.271722
Zghira,13415.0,Région de Tanger-Tétouan-Al Hoceima,34.6383869,-5.2185664
Lamjaara,19162.0,Région de Tanger-Tétouan-Al Hoceima,34.619488450000006,-5.310218583966044
Sidi Ahmed Cherif,7913.0,Région de Tanger-Tétouan-Al Hoceima,34.5657523,-5.2734261
Sidi Bousber,9671.0,Région de Tanger-Tétouan-Al Hoceima,34.565368,-5.358524
Brikcha,8777.0,Région de Tanger-Tétouan-Al Hoceima,34.965241,-5.566101
Asjen,11479.0,Région de Tanger-Tétouan-Al Hoceima,34.848679,-5.617403
Moqrissat,9413.0,Région de Tanger-Tétouan-Al Hoceima,34.92419035,-5.503009743601648
Ain Beida,10368.0,Région de Tanger-Tétouan-Al Hoceima,34.9876064,-5.5284144
Kalaat Bouqorra,13999.0,Région de Tanger-Tétouan-Al Hoceima,34.749565,-5.1981435
Zoumi,36573.0,Région de Tanger-Tétouan-Al Hoceima,34.797672,-5.34936
Oujda,506224.0,Région de l'Oriental,34.677874,-1.929306
Bni Drar,10907.0,Région de l'Oriental,34.859507,-1.991664
Naima,1019.0,Région de l'Oriental,34.6051162,-2.2179267
Ain Sfa,4426.0,Région de l'Oriental,34.7521334,-2.1432566
Bsara,1335.0,Région de l'Oriental,34.67965665,-2.2192524165930125
Bni Khaled,6239.0,Région de l'Oriental,34.8649239,-2.0588577485201673
Ahl Angad,18051.0,Région de l'Oriental,34.786708,-1.9404213
Mestferki,4335.0,Région de l'Oriental,34.49522025,-2.2630993709099743
Sidi Boulenouar,3600.0,Région de l'Oriental,34.5170361,-2.1229639266186107
Isly,10256.0,Région de l'Oriental,34.6880234,-1.9960787
Nador,158202.0,Région de l'Oriental,35.1739922,-2.9281198
Zeghanghane,31431.0,Région de l'Oriental,35.1548806,-3.0045566
Bni Ansar,50508.0,Région de l'Oriental,35.259687,-2.933644
Al Aaroui,46540.0,Région de l'Oriental,35.010185,-3.012265
Zaio,36766.0,Région de l'Oriental,34.941906,-2.734164
Selouane,29628.0,Région de l'Oriental,35.07284,-2.941719
Ras-El-Ma,7527.0,Région de l'Oriental,35.1372835,-2.4227911
Bni Bouifrour,6846.0,Région de l'Oriental,35.1480117,-2.9801827046474876
Iksane,7731.0,Région de l'Oriental,35.1328054,-3.0318358
Bouarg,44626.0,Région de l'Oriental,35.10063755,-2.8647644643322803
Iaazzanene,12706.0,Région de l'Oriental,35.23262945,-3.1202863519140926
Bni Chiker,22763.0,Région de l'Oriental,35.277213,-3.013687
Bni Sidel Jbel,8199.0,Région de l'Oriental,35.2154892,-3.047375128206653
Bni Sidel Louta,5366.0,Région de l'Oriental,35.101100349999996,-3.1423140135557155
Hassi-Berkane,7465.0,Région de l'Oriental,34.840015,-2.878745
Afsou,2020.0,Région de l'Oriental,34.8227807,-3.1626409847687365
Tiztoutine,9349.0,Région de l'Oriental,34.97259,-3.155905
Bni Oukil Oulad M'hand,14691.0,Région de l'Oriental,34.9659806,-2.98309744329739
Arekmane,16477.0,Région de l'Oriental,35.059793799999994,-2.704061910064784
Al Barkanyene,2278.0,Région de l'Oriental,35.0574753,-2.5529520336092997
Oulad Settout,26052.0,Région de l'Oriental,34.9201001,-2.723092900397538
Oulad Daoud Zkhanine,3149.0,Région de l'Oriental,35.01392715,-2.508919577856894
Driouch,15661.0,Région de l'Oriental,34.97282365,-3.3840191865535414
Ben Taieb,15002.0,Région de l'Oriental,35.0445193,-3.4553716
Midar,15391.0,Région de l'Oriental,34.93509015,-3.531722903803324
Talilit,3881.0,Région de l'Oriental,35.13644435,-3.5675248730374314
Ouardana,7032.0,Région de l'Oriental,35.066396100000006,-3.423560031651378
M'hajer,8008.0,Région de l'Oriental,35.106168,-3.500722701481231
Iferni,4873.0,Région de l'Oriental,35.0018379,-3.6506040149905603
Azlaf,4132.0,Région de l'Oriental,34.904434699999996,-3.6494781331811446
Tsaft,8401.0,Région de l'Oriental,34.95829075,-3.7512227658552715
Tafersit,8202.0,Région de l'Oriental,35.0065558,-3.5403724
Ijermaouas,5303.0,Région de l'Oriental,35.0696404,-3.6729214
Temsamane,12198.0,Région de l'Oriental,35.1175252,-3.6412968
Boudinar,7996.0,Région de l'Oriental,35.154017,-3.632216
Bni Marghnine,4950.0,Région de l'Oriental,35.1816119,-3.565169
Oulad Amghar,5755.0,Région de l'Oriental,35.2436955,-3.6997251777219646
Trougout,11348.0,Région de l'Oriental,35.1797828,-3.7713473
Mtalssa,16778.0,Région de l'Oriental,34.869948,-3.4990466002775706
Ain Zohra,8705.0,Région de l'Oriental,34.6674702,-3.5252412240687763
Oulad Boubker,3703.0,Région de l'Oriental,34.7840102,-3.4143648416858285
Dar El Kebdani,8518.0,Région de l'Oriental,35.1192286,-3.3338008
Ait Mait,4721.0,Région de l'Oriental,35.0763862,-3.332196388346782
Tazaghine,3456.0,Région de l'Oriental,35.18338,-3.507493
Amejjaou,4177.0,Région de l'Oriental,35.13806375,-3.2482338156738932
Jerada,41014.0,Région de l'Oriental,34.310531,-2.159979
Ain Bni Mathar,15488.0,Région de l'Oriental,34.013156,-2.023083
Touissit,3066.0,Région de l'Oriental,34.479125,-1.768541
Guenfouda,5712.0,Région de l'Oriental,34.484709,-2.045819
Ras Asfour,1275.0,Région de l'Oriental,34.5522458,-1.8509785
Sidi Boubker,2354.0,Région de l'Oriental,31.84909815,-7.748032803354201
Tiouli,4305.0,Région de l'Oriental,34.454161,-1.898747
Laaouinate,5467.0,Région de l'Oriental,34.3457306,-2.1461104
Lebkhata,2541.0,Région de l'Oriental,34.178280799999996,-2.3927963660139016
Bni Mathar,10887.0,Région de l'Oriental,33.9752716,-2.0157543020743667
Ouled Sidi Abdelhakem,1276.0,Région de l'Oriental,33.9730811,-1.7689971515827396
Mrija,2882.0,Région de l'Oriental,34.0219763,-2.3832788
Ouled Ghziyel,4656.0,Région de l'Oriental,33.9532211,-2.6125148
Berkane,99069.0,Région de l'Oriental,34.9266755,-2.3294087
Ahfir,16310.0,Région de l'Oriental,34.955281,-2.100793
Saidia,10514.0,Région de l'Oriental,35.0822208,-2.2245756
Aklim,8630.0,Région de l'Oriental,34.886741,-2.518554
Sidi Slimane Echcharaa,31686.0,Région de l'Oriental,34.909135,-2.349642
Laatamna,14561.0,Région de l'Oriental,31.91576355,-7.356184653639652
Madagh,14659.0,Région de l'Oriental,35.008654,-2.336222
Fezouane,5783.0,Région de l'Oriental,34.9163284,-2.2040608
Aghbal,16113.0,Région de l'Oriental,34.938925499999996,-2.1429909465724553
Boughriba,19013.0,Région de l'Oriental,34.9351969,-2.4306333
Chouihia,11249.0,Région de l'Oriental,34.812091249999995,-2.640932750681806
Rislane,3783.0,Région de l'Oriental,34.70281525,-2.405447741858013
Sidi Bouhria,4088.0,Région de l'Oriental,34.68449925,-2.3195642040167845
Tafoughalt,2366.0,Région de l'Oriental,34.8055488,-2.411397
Zegzel,23846.0,Région de l'Oriental,34.8414927,-2.355503
Taourirt,100402.0,Région de l'Oriental,34.413438,-2.893825
El Aioun Sidi Mellouk,40652.0,Région de l'Oriental,34.578344,-2.502961
Debdou,4447.0,Région de l'Oriental,33.986368,-3.039726
Gteter,8222.0,Région de l'Oriental,34.351957,-3.064779
Ahl Oued Za,11024.0,Région de l'Oriental,34.291704249999995,-2.796788235651895
Melg El Ouidane,8009.0,Région de l'Oriental,34.5290218,-2.948054113100811
Ain Lehjer,7692.0,Région de l'Oriental,34.546546,-2.480355
Mechraa Hammadi,4343.0,Région de l'Oriental,34.733519,-2.799057
Mestegmer,5295.0,Région de l'Oriental,34.4832479,-2.6993649
Tancherfi,6092.0,Région de l'Oriental,34.375976,-2.642107
Sidi Lahsen,6779.0,Région de l'Oriental,34.102067,-2.620971
El Atef,933.0,Région de l'Oriental,33.8010988,-3.0420979
Ouled M'hamed,2316.0,Région de l'Oriental,33.02821505,-7.075650604963011
Guercif,80703.0,Région de l'Oriental,34.225576,-3.352345
Barkine,6839.0,Région de l'Oriental,33.7664834,-3.8438198
Assebbab,7144.0,Région de l'Oriental,33.9706091,-3.5043065
Houara Oulad Raho,39947.0,Région de l'Oriental,34.1447184,-3.2266331
Lamrija,14457.0,Région de l'Oriental,33.9912468,-3.2790606
Saka,20857.0,Région de l'Oriental,34.618565,-3.414615
Ras Laksar,12092.0,Région de l'Oriental,34.0445424,-3.7641663
Taddart,26540.0,Région de l'Oriental,34.21615,-3.583368
Oulad Bourima,1117.0,Région de l'Oriental,34.3538462,-3.7492089
Mazguitam,6141.0,Région de l'Oriental,34.499625,-3.641508
Figuig,10449.0,Région de l'Oriental,32.726313399999995,-2.6446271757982704
Bouarfa,30068.0,Région de l'Oriental,32.532903,-1.963231
Bni Tadjite,17557.0,Région de l'Oriental,32.289782,-3.466617
Bouanane,11181.0,Région de l'Oriental,32.039244,-3.04928
Ain Chair,1501.0,Région de l'Oriental,32.22020085,-2.487284635865391
Ain Chouater,706.0,Région de l'Oriental,31.8504227,-2.964937
Boumerieme,8067.0,Région de l'Oriental,32.828388849999996,-3.6064824551642074
Talsint,18806.0,Région de l'Oriental,32.535512,-3.439467
Bouchaouene,15242.0,Région de l'Oriental,32.793109099999995,-2.9726450810306986
Bni Guil,8261.0,Région de l'Oriental,32.448384000000004,-1.8515904300345145
Abbou Lakhal,1790.0,Région de l'Oriental,32.1569307,-1.5133879
Tendrara,14269.0,Région de l'Oriental,33.049438,-2.000089
Maatarka,6554.0,Région de l'Oriental,33.1352458,-2.466049625246903
Fès,1167842.0,Région de Fès-Meknès,34.0346534,-5.0161926
Oulad Tayeb,56352.0,Région de Fès-Meknès,33.959838,-4.99562
Sidi Harazem,5748.0,Région de Fès-Meknès,31.0193649,-6.1195739
Ain Bida,11109.0,Région de Fès-Meknès,34.9876064,-5.5284144
Meknès,551503.0,Région de Fès-Meknès,33.8984131,-5.5321582
Al Machouar-Stinia,5009.0,Région de Fès-Meknès,33.8915022,-5.5623057
Ouislane,112180.0,Région de Fès-Meknès,33.9106742,-5.4865526
Boufakrane,16892.0,Région de Fès-Meknès,33.75520725,-5.485143567261043
Toulal,26970.0,Région de Fès-Meknès,33.8932573,-5.5956227
Oualili,9009.0,Région de Fès-Meknès,34.0399646,-5.5626871
Mrhassiyine,8355.0,Région de Fès-Meknès,34.00451940000001,-5.501400544147608
Charqaoua,4727.0,Région de Fès-Meknès,34.173305150000004,-5.400276988374104
N'zalat Bni Amar,7672.0,Région de Fès-Meknès,34.1238486,-5.4316033
Dkhissa,28296.0,Région de Fès-Meknès,33.9373089,-5.4666399
Oued Jdida,16379.0,Région de Fès-Meknès,33.924289,-5.3691
M'haya,30060.0,Région de Fès-Meknès,33.976917,-5.249915
Majjate,20698.0,Région de Fès-Meknès,33.8184108,-5.5131869
Sidi Slimane Moul Al Kifane,20427.0,Région de Fès-Meknès,33.8604919,-5.4611693
Ain Orma,3341.0,Région de Fès-Meknès,33.8940376,-5.7479925
Dar Oum Soltane,11609.0,Région de Fès-Meknès,33.9004968,-5.6406209
Ait Ouallal,19079.0,Région de Fès-Meknès,30.88359465,-5.960187968025805
Ain Karma-Oued Rommane,13986.0,Région de Fès-Meknès,34.06819645,-5.651120117356677
Ain Jemaa,14557.0,Région de Fès-Meknès,34.026077,-5.793621
El Hajeb,41359.0,Région de Fès-Meknès,33.69875155,-5.492859310767717
Sabaa Aiyoun,28736.0,Région de Fès-Meknès,33.903146,-5.376872
Ain Taoujdate,33055.0,Région de Fès-Meknès,33.940302,-5.208052
Agourai,19158.0,Région de Fès-Meknès,33.643846,-5.589918
Ait Bourzouine,7906.0,Région de Fès-Meknès,33.641081549999996,-5.511447796664602
Iqaddar,8774.0,Région de Fès-Meknès,33.67697095,-5.412545862406498
Ait Naamane,5857.0,Région de Fès-Meknès,33.6724984,-5.296042017445311
Ait Harz Allah,13604.0,Région de Fès-Meknès,33.74614375,-5.292856357165976
Ait Boubidmane,22780.0,Région de Fès-Meknès,33.8167388,-5.2749377
Bitit,15241.0,Région de Fès-Meknès,33.821302349999996,-5.129189535734435
Laqsir,32377.0,Région de Fès-Meknès,33.904536449999995,-5.222792818518517
Tamchachate,3562.0,Région de Fès-Meknès,33.50710505,-5.640334797454894
Ait Yaazem,16912.0,Région de Fès-Meknès,33.73255,-5.579042
Ait Ouikhalfen,3261.0,Région de Fès-Meknès,33.61650925,-5.720919505604021
Jahjouh,7867.0,Région de Fès-Meknès,33.612756700000006,-5.635748092143662
Ras Ijerri,6707.0,Région de Fès-Meknès,33.789545,-5.709909
Azrou,57657.0,Région de Fès-Meknès,33.436117,-5.221913
Ifrane,13964.0,Région de Fès-Meknès,33.527605,-5.107408
Tizguite,12204.0,Région de Fès-Meknès,33.66096345,-5.138265730449667
Dayat-Aoua,12050.0,Région de Fès-Meknès,33.56927175,-4.9708565275755365
Ben Smim,7676.0,Région de Fès-Meknès,33.5032737,-5.1866309
Tigrigra,10085.0,Région de Fès-Meknès,33.4718499,-5.40154509208635
Timahdite,11571.0,Région de Fès-Meknès,33.238277,-5.060916
Ain Leuh,8989.0,Région de Fès-Meknès,33.292125,-5.338439
Sidi El Makhfi,16441.0,Région de Fès-Meknès,33.3959671,-5.3327353
Oued Ifrane,10267.0,Région de Fès-Meknès,33.1242162,-5.266204212591838
Moulay Yacoub,4545.0,Région de Fès-Meknès,34.087468,-5.179435
Ain Chkef,91541.0,Région de Fès-Meknès,33.964680099999995,-5.087658664254177
Sebaa Rouadi,26750.0,Région de Fès-Meknès,34.037757,-5.1371035
Mikkes,6145.0,Région de Fès-Meknès,34.12761535,-5.267162042952638
Sebt Loudaya,11984.0,Région de Fès-Meknès,34.213584749999995,-5.319879520578035
Laajajra,14715.0,Région de Fès-Meknès,34.19269165,-5.168891257916839
Sidi Daoud,13088.0,Région de Fès-Meknès,34.26075525,-5.186985594515649
Oulad Mimoun,9399.0,Région de Fès-Meknès,34.23288105,-5.047421389213104
Louadaine,11523.0,Région de Fès-Meknès,34.2264586,-4.953026540501854
Ain Kansara,14910.0,Région de Fès-Meknès,34.1150045,-4.8294935794969405
Ain Bou Ali,12354.0,Région de Fès-Meknès,34.13045805,-5.0013856396442
Sefrou,86903.0,Région de Fès-Meknès,33.824898,-4.833336
Bhalil,13727.0,Région de Fès-Meknès,33.852241,-4.870181
El Menzel,11400.0,Région de Fès-Meknès,33.83673,-4.548401
Ribate El Kheir,18469.0,Région de Fès-Meknès,33.8154579,-4.4068912
Kandar Sidi Khiar,10417.0,Région de Fès-Meknès,33.804149550000005,-4.929935436264947
Laanoussar,9285.0,Région de Fès-Meknès,33.684354,-4.869937
Tazouta,5804.0,Région de Fès-Meknès,33.669749,-4.633914
Ahl Sidi Lahcen,3566.0,Région de Fès-Meknès,33.769195350000004,-4.66384705023572
Sidi Youssef Ben Ahmed,13748.0,Région de Fès-Meknès,33.84557675,-4.77739881110018
Aghbalou Aqorar,9920.0,Région de Fès-Meknès,33.9341366,-4.7380687
Azzaba,6128.0,Région de Fès-Meknès,33.8176637,-4.703350420785679
Ain Timguenai,6598.0,Région de Fès-Meknès,33.872278050000006,-4.481646814999289
Mtarnagha,4056.0,Région de Fès-Meknès,33.8518896,-4.574957
Oulad Mkoudou,5872.0,Région de Fès-Meknès,33.77634785,-4.516614992854677
Tafajight,1397.0,Région de Fès-Meknès,33.569023,-4.295826
Adrej,1216.0,Région de Fès-Meknès,33.643253,-4.438270874330145
Dar El Hamra,3540.0,Région de Fès-Meknès,33.7068323,-4.4226991854222995
Irhzrane,8498.0,Région de Fès-Meknès,Not Found,Not Found
Ras Tabouda,6022.0,Région de Fès-Meknès,34.004978,-4.714224
Bir Tam-Tam,8954.0,Région de Fès-Meknès,33.978948700000004,-4.6459933475144135
Ain Cheggag,28584.0,Région de Fès-Meknès,33.887389,-5.036853
Ait Sebaa Lajrouf,18701.0,Région de Fès-Meknès,33.73728545,-5.0899045230657585
Boulemane,6761.0,Région de Fès-Meknès,33.363795800000005,-4.729575021747637
Missour,28408.0,Région de Fès-Meknès,33.047057,-3.992578
Outat El Haj,20673.0,Région de Fès-Meknès,33.337366,-3.696438
Imouzzer Marmoucha,4676.0,Région de Fès-Meknès,33.470015,-4.294914
Guigou,24677.0,Région de Fès-Meknès,33.384529,-4.83332
Enjil,7984.0,Région de Fès-Meknès,33.0950687,-4.559695421131774
Skoura M'daz,8297.0,Région de Fès-Meknès,33.518893,-4.544113
Ait Bazza,2397.0,Région de Fès-Meknès,33.3964888,-4.2228785737962
Almis Marmoucha,2292.0,Région de Fès-Meknès,33.3227,-4.181218
Talzemt,2701.0,Région de Fès-Meknès,33.6001986,-4.1901239
Ait El Mane,1694.0,Région de Fès-Meknès,33.4513807,-4.322570365537302
Serghina,3567.0,Région de Fès-Meknès,33.30582185,-4.488653068284588
El Mers,4887.0,Région de Fès-Meknès,33.427851700000005,-4.503863382521916
Ksabi-Moulouya,10471.0,Région de Fès-Meknès,32.79216235,-4.273650939065437
Ouizeght,5430.0,Région de Fès-Meknès,32.84417005,-4.037582893326598
Sidi Boutayeb,9969.0,Région de Fès-Meknès,33.0262221,-4.0324157
Oulad Ali Youssef,3279.0,Région de Fès-Meknès,33.414536749999996,-4.0101687544102305
El Orjane,7706.0,Région de Fès-Meknès,33.396042,-3.728659
Tissaf,11615.0,Région de Fès-Meknès,33.397648,-3.584048
Ermila,8333.0,Région de Fès-Meknès,33.209094199999996,-3.874542328426903
Fritissa,29594.0,Région de Fès-Meknès,33.6194309,-3.5468513
Taounate,39114.0,Région de Fès-Meknès,34.538476,-4.635994
Karia Ba Mohamed,20859.0,Région de Fès-Meknès,34.364056,-5.214573
Rhafsai,7117.0,Région de Fès-Meknès,34.6266439,-4.9098068
Thar Es-Souk,5218.0,Région de Fès-Meknès,34.6520688,-4.2786199
Tissa,12096.0,Région de Fès-Meknès,34.28657,-4.665632
Bouchabel,13767.0,Région de Fès-Meknès,34.379997,-5.015668
Jbabra,15904.0,Région de Fès-Meknès,34.44135235,-4.991041389113716
Sidi El Abed,11240.0,Région de Fès-Meknès,34.3170323,-5.040631053863848
Loulja,13679.0,Région de Fès-Meknès,34.2915407,-4.908196356955728
Moulay Abdelkrim,6557.0,Région de Fès-Meknès,34.47571145,-5.226461483560081
Bni Snous,8479.0,Région de Fès-Meknès,34.3492481,-5.1926297
Moulay Bouchta,12554.0,Région de Fès-Meknès,34.490326,-5.112509
Mkansa,23690.0,Région de Fès-Meknès,34.33502545,-5.400223726338836
Rhouazi,16405.0,Région de Fès-Meknès,34.477448,-5.300712
Ourtzarh,13256.0,Région de Fès-Meknès,34.5350503,-4.9659263
Galaz,15201.0,Région de Fès-Meknès,34.539599,-4.802871
Sidi Haj M'hamed,7880.0,Région de Fès-Meknès,34.760379400000005,-4.999976950732934
Sidi Yahia Bni Zeroual,14284.0,Région de Fès-Meknès,Not Found,Not Found
Oudka,7380.0,Région de Fès-Meknès,34.6749447,-4.9066935
Ratba,14944.0,Région de Fès-Meknès,34.777857,-4.932239
El Bibane,5853.0,Région de Fès-Meknès,34.62886735,-4.857381184591412
Sidi Mokhfi,7915.0,Région de Fès-Meknès,34.6039126,-4.7889118
Timezgana,15191.0,Région de Fès-Meknès,34.580215,-4.72859
Kissane,11763.0,Région de Fès-Meknès,34.599691,-5.092377
Tabouda,13635.0,Région de Fès-Meknès,34.7434402,-5.10042038230214
Tafrant,13217.0,Région de Fès-Meknès,34.6250515,-5.1243048
Ain Mediouna,15115.0,Région de Fès-Meknès,34.4978758,-4.5494571
Bni Oulid,8967.0,Région de Fès-Meknès,34.5896225,-4.4513719
Bouadel,11564.0,Région de Fès-Meknès,34.5400716,-4.5075123
Bouhouda,24823.0,Région de Fès-Meknès,34.5922378,-4.5492371
Zrizer,7539.0,Région de Fès-Meknès,34.5878543,-4.6198888
Khlalfa,14340.0,Région de Fès-Meknès,34.6725538,-4.6275819
Rghioua,3666.0,Région de Fès-Meknès,34.53051095,-4.5885009704551685
Mezraoua,7712.0,Région de Fès-Meknès,34.5247457,-4.73488117747158
Tamedit,12252.0,Région de Fès-Meknès,34.6833352,-4.1959199
Bni Ounjel Tafraout,5993.0,Région de Fès-Meknès,34.66577595,-4.34976239274026
Fennassa Bab El Hit,10285.0,Région de Fès-Meknès,34.611052,-4.4170723
El Bsabsa,7485.0,Région de Fès-Meknès,34.3145174,-4.723364829355719
Oued Jemaa,7825.0,Région de Fès-Meknès,34.23644645,-4.798081212551664
Ras El Oued,13299.0,Région de Fès-Meknès,34.3901622,-4.5070986
Sidi M'hamed Ben Lahcen,16980.0,Région de Fès-Meknès,34.2266999,-4.598291991483757
Ain Maatouf,8639.0,Région de Fès-Meknès,34.4351606,-4.5566058
Ain Aicha,24723.0,Région de Fès-Meknès,34.4105851,-4.623430936062299
Oulad Daoud,10800.0,Région de Fès-Meknès,34.405851,-4.6938673
Bouarouss,16329.0,Région de Fès-Meknès,34.366306,-4.809899
Ain Legdah,10598.0,Région de Fès-Meknès,34.167858,-4.502122
Oulad Ayyad,9763.0,Région de Fès-Meknès,34.0839266,-4.6079255
Messassa,8195.0,Région de Fès-Meknès,34.25698575,-4.527061232440111
Outabouabane,8560.0,Région de Fès-Meknès,34.2419342,-4.38875888942278
Taza,150763.0,Région de Fès-Meknès,34.230155,-4.010104
Tahla,28612.0,Région de Fès-Meknès,34.050634,-4.4224
Aknoul,4410.0,Région de Fès-Meknès,34.65602,-3.865259
Ouad Amlil,10929.0,Région de Fès-Meknès,34.2458952,-4.2811297518009575
Bourd,6996.0,Région de Fès-Meknès,34.7445412,-4.088202807975534
Ajdir,8640.0,Région de Fès-Meknès,34.76709795,-3.934547135990813
Gzenaya Al Janoubia,8125.0,Région de Fès-Meknès,34.6354141,-3.9777499887527163
Jbarna,2328.0,Région de Fès-Meknès,34.4938932,-3.9115542
Sidi Ali Bourakba,6280.0,Région de Fès-Meknès,34.8165694,-3.7287112
Tizi Ouasli,5436.0,Région de Fès-Meknès,34.7461941,-3.72779429895592
Ait Saghrouchen,15147.0,Région de Fès-Meknès,33.95553613761765,-6.821530909301326
Tazarine,2030.0,Région de Fès-Meknès,33.91246245000001,-4.125183535549208
Bouyablane,1667.0,Région de Fès-Meknès,33.76797845,-4.062586375206346
Matmata,11665.0,Région de Fès-Meknès,34.0983766,-4.5508579
Smia,7385.0,Région de Fès-Meknès,34.0306296,-4.3900879
Zrarda,9343.0,Région de Fès-Meknès,33.9742225,-4.3782218
Bni Ftah,9632.0,Région de Fès-Meknès,34.4980574,-4.0393488
Traiba,5773.0,Région de Fès-Meknès,34.415495,-3.9742768
Taifa,6000.0,Région de Fès-Meknès,34.358390400000005,-4.065464090634927
Kaf El Ghar,7060.0,Région de Fès-Meknès,34.5074509,-4.2628561
Msila,7800.0,Région de Fès-Meknès,34.4410377,-4.1754595788118
Brarha,6625.0,Région de Fès-Meknès,34.457534800000005,-4.346779151296014
El Gouzate,5942.0,Région de Fès-Meknès,34.5020172,-4.1567651
Tainaste,10411.0,Région de Fès-Meknès,34.58230815,-4.144994293023759
Bab Boudir,4209.0,Région de Fès-Meknès,34.0698564,-4.1203958
Bab Marzouka,17323.0,Région de Fès-Meknès,34.2105267,-4.1459724
Galdamane,21732.0,Région de Fès-Meknès,34.1334235,-3.9488882
Meknassa Al Gharbia,3422.0,Région de Fès-Meknès,34.2714043,-4.067175366919013
Meknassa Acharqia,5197.0,Région de Fès-Meknès,34.3096602,-3.9633018
Bni Lent,10801.0,Région de Fès-Meknès,34.3271716,-4.2037509
Oulad Chrif,7882.0,Région de Fès-Meknès,34.2696671,-4.1599577
Maghraoua,6775.0,Région de Fès-Meknès,33.9321143,-4.0455509
Oulad Zbair,17562.0,Région de Fès-Meknès,34.289449,-4.319931
Bouhlou,8510.0,Région de Fès-Meknès,34.15303539999999,-4.362776045906257
Bouchfaa,10093.0,Région de Fès-Meknès,34.09201175,-4.281873796521739
Ghiata Al Gharbia,22437.0,Région de Fès-Meknès,34.1769082,-4.2349100804182935
Rbaa El Fouki,6156.0,Région de Fès-Meknès,34.3843713,-4.282683
Bni Frassen,19873.0,Région de Fès-Meknès,34.3819107,-4.3760802
Rabat,509916.0,Région de Rabat-Salé-Kénitra,33.9851778,-6.8461433
Touarga,5703.0,Région de Rabat-Salé-Kénitra,34.007331,-6.829443
Salé,945101.0,Région de Rabat-Salé-Kénitra,34.044889,-6.814017
Sidi Bouknadel,43598.0,Région de Rabat-Salé-Kénitra,34.123948,-6.733029
Ameur,75942.0,Région de Rabat-Salé-Kénitra,34.0921706,-6.663507506112724
Shoul,24913.0,Région de Rabat-Salé-Kénitra,33.915856399999996,-6.6478587145097645
Témara,297098.0,Région de Rabat-Salé-Kénitra,33.917166,-6.923804
Harhoura,20950.0,Région de Rabat-Salé-Kénitra,33.914435,-6.9702597
Skhirate,122705.0,Région de Rabat-Salé-Kénitra,33.850672,-7.028026
Ain El Aouda,98502.0,Région de Rabat-Salé-Kénitra,33.803077,-6.79413
Ain Attig,73985.0,Région de Rabat-Salé-Kénitra,33.8898576,-6.9678655
Mers El Kheir,26544.0,Région de Rabat-Salé-Kénitra,33.8745842,-6.9078166054461
Sabbah,15552.0,Région de Rabat-Salé-Kénitra,33.8041822,-7.027605892909956
El Menzeh,7168.0,Région de Rabat-Salé-Kénitra,33.8552788,-6.8531338
Oumazza,4322.0,Région de Rabat-Salé-Kénitra,33.8807047,-6.7857213
Sidi Yahya Zaer,116649.0,Région de Rabat-Salé-Kénitra,33.8262331,-6.9039822
Kénitra,507736.0,Région de Rabat-Salé-Kénitra,34.26457,-6.570169
Souk El Arbaa,70894.0,Région de Rabat-Salé-Kénitra,34.6765226,-5.9926170293009875
Mehdya,58558.0,Région de Rabat-Salé-Kénitra,34.25591735,-6.657727757212821
Sidi Taibi,76227.0,Région de Rabat-Salé-Kénitra,34.1916611,-6.6844815
Ameur Seflia,37935.0,Région de Rabat-Salé-Kénitra,34.27524395,-6.334433038790621
Ouled Slama,23848.0,Région de Rabat-Salé-Kénitra,Not Found,Not Found
Haddada,22652.0,Région de Rabat-Salé-Kénitra,34.223052,-6.510859
Mnasra,41434.0,Région de Rabat-Salé-Kénitra,34.3708381,-6.530652386860922
Ben Mansour,53545.0,Région de Rabat-Salé-Kénitra,34.5956792,-6.3752273041587175
Sidi Mohamed Benmansour,24703.0,Région de Rabat-Salé-Kénitra,Not Found,Not Found
Mograne,36452.0,Région de Rabat-Salé-Kénitra,34.412485,-6.427556
Arbaoua,35077.0,Région de Rabat-Salé-Kénitra,34.9134851,-5.932567028483913
Oued El Makhazine,6264.0,Région de Rabat-Salé-Kénitra,34.880914,-5.831723
Kariat Ben Aouda,11238.0,Région de Rabat-Salé-Kénitra,34.771168,-5.953013
Beni Malek,28711.0,Région de Rabat-Salé-Kénitra,34.70910035,-6.008641152295975
Sidi Allal Tazi,22266.0,Région de Rabat-Salé-Kénitra,34.52185,-6.323673
Souk Tlet El Gharb,24190.0,Région de Rabat-Salé-Kénitra,34.601171,-6.173848
Bahhara Ouled Ayad,38611.0,Région de Rabat-Salé-Kénitra,Not Found,Not Found
Sidi Mohamed Lahmar,52679.0,Région de Rabat-Salé-Kénitra,34.728509,-6.2479543
Moulay Bousselham,32643.0,Région de Rabat-Salé-Kénitra,34.878009,-6.294076
Lalla Mimouna,35600.0,Région de Rabat-Salé-Kénitra,34.848871,-6.069173
Chouafaa,21374.0,Région de Rabat-Salé-Kénitra,34.9429002,-6.177412996616065
Sidi Boubker El Haj,21610.0,Région de Rabat-Salé-Kénitra,34.9223479,-6.05454630443794
Khémisset,125834.0,Région de Rabat-Salé-Kénitra,33.830287,-6.072605
Rommani,11117.0,Région de Rabat-Salé-Kénitra,33.528608,-6.604434
Tiflet,103850.0,Région de Rabat-Salé-Kénitra,33.894009,-6.31673
Sidi Allal El Bahraoui,29147.0,Région de Rabat-Salé-Kénitra,34.010715,-6.532357
Ait Mimoune,7065.0,Région de Rabat-Salé-Kénitra,33.7808266,-5.7822457
Ait Ouribel,9375.0,Région de Rabat-Salé-Kénitra,33.77476075,-6.133830826386907
Majmaa Tolba,15447.0,Région de Rabat-Salé-Kénitra,33.7184874,-5.99046126925586
El Ganzra,13792.0,Région de Rabat-Salé-Kénitra,34.022213449999995,-5.95122000673444
Ait Yadine,21007.0,Région de Rabat-Salé-Kénitra,33.9704133,-6.0175027
Sfassif,7071.0,Région de Rabat-Salé-Kénitra,33.8962169,-5.8068045
Ait Siberne,4676.0,Région de Rabat-Salé-Kénitra,33.848781349999996,-5.905250513922392
Sidi Allal Lamsadder,6875.0,Région de Rabat-Salé-Kénitra,33.8731842,-6.1502206
Sidi El Rhandour,7644.0,Région de Rabat-Salé-Kénitra,Not Found,Not Found
Houderrane,6049.0,Région de Rabat-Salé-Kénitra,33.718622499999995,-6.2595289785920984
Maaziz,10812.0,Région de Rabat-Salé-Kénitra,33.6680618,-6.3207189
Ait Ikkou,8179.0,Région de Rabat-Salé-Kénitra,33.654667399999994,-6.0896598483987505
Bouqachmir,2877.0,Région de Rabat-Salé-Kénitra,33.5110391,-5.9303107
Ait Ichou,1454.0,Région de Rabat-Salé-Kénitra,33.531777649999995,-6.041606364946642
Oulmes,19579.0,Région de Rabat-Salé-Kénitra,33.425509,-6.004488
Tiddas,9013.0,Région de Rabat-Salé-Kénitra,33.566538,-6.265945
Brachoua,11851.0,Région de Rabat-Salé-Kénitra,33.71902605,-6.659711097827184
My Driss Aghbal,4583.0,Région de Rabat-Salé-Kénitra,33.68551465,-6.497432219420054
Jemaat Moul Blad,5051.0,Région de Rabat-Salé-Kénitra,33.65986905,-6.4569015517588575
Laghoualem,12051.0,Région de Rabat-Salé-Kénitra,33.374955,-6.718352101124887
Marchouch,13017.0,Région de Rabat-Salé-Kénitra,33.5633084,-6.679600898962751
Ain Sbit,10425.0,Région de Rabat-Salé-Kénitra,33.488921250000004,-6.444601982935565
Ezzhiliga,14788.0,Région de Rabat-Salé-Kénitra,33.294596,-6.539272
M'qam Tolba,15070.0,Région de Rabat-Salé-Kénitra,34.01389855,-6.257768836126006
Sidi Abderrazak,14021.0,Région de Rabat-Salé-Kénitra,34.02941585,-6.161389317101628
Ait Malek,3809.0,Région de Rabat-Salé-Kénitra,33.94935695,-6.467839507753421
Ait Ali Ou Lahcen,5139.0,Région de Rabat-Salé-Kénitra,34.0386644,-6.491541486395741
Ain Johra-Sidi Boukhalkhal,16644.0,Région de Rabat-Salé-Kénitra,34.0137928,-6.34345778751924
Ait Belkacem,4396.0,Région de Rabat-Salé-Kénitra,33.82992695,-6.375602695213483
Khemis Sidi Yahya,6837.0,Région de Rabat-Salé-Kénitra,33.793215599999996,-6.231579919316605
Ait Bouyahia El Hajjama,4491.0,Région de Rabat-Salé-Kénitra,Not Found,Not Found
Sidi Kacem,75037.0,Région de Rabat-Salé-Kénitra,34.226412,-5.711434
Mechraa Bel Ksiri,32615.0,Région de Rabat-Salé-Kénitra,34.4837155,-5.5190313
Had Kourt,8554.0,Région de Rabat-Salé-Kénitra,34.615129,-5.736023
Jorf El Melha,31976.0,Région de Rabat-Salé-Kénitra,34.488696,-5.509151
Dar Gueddari,7826.0,Région de Rabat-Salé-Kénitra,34.4208162,-6.0941702
Bni Oual,6623.0,Région de Rabat-Salé-Kénitra,34.7257408,-5.6573155
Ain Dfali,23018.0,Région de Rabat-Salé-Kénitra,34.607025699999994,-5.562973914104335
Moulay Abdelkader,7740.0,Région de Rabat-Salé-Kénitra,34.6424823,-5.783725348575219
Sidi Azzouz,14484.0,Région de Rabat-Salé-Kénitra,34.5481706,-5.7687656
Sidi Ahmed Benaissa,7685.0,Région de Rabat-Salé-Kénitra,34.722939350000004,-5.819055045554735
Sidi Ameur Al Hadi,11703.0,Région de Rabat-Salé-Kénitra,34.7991118,-5.8395799
Lamrabih,20154.0,Région de Rabat-Salé-Kénitra,34.47569815,-5.454966078053505
Taoughilt,15013.0,Région de Rabat-Salé-Kénitra,34.4374884,-5.5056377
Khnichet,26246.0,Région de Rabat-Salé-Kénitra,34.4383085,-5.6844179
Oulad Nouel,11578.0,Région de Rabat-Salé-Kénitra,34.498385150000004,-5.659367260064494
Sidi M'hamed Chelh,7977.0,Région de Rabat-Salé-Kénitra,34.5018538,-5.7727782
Sidi Al Kamel,34016.0,Région de Rabat-Salé-Kénitra,34.5586324,-6.1686298
Rmilat,19117.0,Région de Rabat-Salé-Kénitra,35.7923001,-5.8663711
Dar Laaslouji,36072.0,Région de Rabat-Salé-Kénitra,34.4103021,-6.0265945
Nouirate,26833.0,Région de Rabat-Salé-Kénitra,34.5676991,-5.8932866
Al Haouafate,18528.0,Région de Rabat-Salé-Kénitra,34.4740065,-5.9239385
Sefsaf,28106.0,Région de Rabat-Salé-Kénitra,34.55330755,-6.02589176276036
Bab Tiouka,7626.0,Région de Rabat-Salé-Kénitra,34.245491,-5.6625941
Zirara,16829.0,Région de Rabat-Salé-Kénitra,34.2417383,-5.742882
Chbanate,10303.0,Région de Rabat-Salé-Kénitra,34.2940427,-5.7656993
Zaggota,10245.0,Région de Rabat-Salé-Kénitra,34.166955,-5.529734
Selfat,10366.0,Région de Rabat-Salé-Kénitra,34.236103650000004,-5.4849610396211
Bir Taleb,11843.0,Région de Rabat-Salé-Kénitra,34.3317775,-5.6649332
Tekna,7396.0,Région de Rabat-Salé-Kénitra,34.34809755,-5.56110137336079
Sidi Slimane,95114.0,Région de Rabat-Salé-Kénitra,34.259878,-5.927253
Sidi Yahia El Gharb,39946.0,Région de Rabat-Salé-Kénitra,Not Found,Not Found
Boumaiz,22693.0,Région de Rabat-Salé-Kénitra,34.2994863,-5.921213411978777
Dar Bel Amri,32873.0,Région de Rabat-Salé-Kénitra,34.189104,-5.971499
Azghar,11707.0,Région de Rabat-Salé-Kénitra,34.1857854,-5.8956891
Ouled Ben Hammadi,13491.0,Région de Rabat-Salé-Kénitra,32.2921711,-6.5935279
M'saada,22399.0,Région de Rabat-Salé-Kénitra,34.381861549999996,-5.849979688766127
Ouled H'cine,33227.0,Région de Rabat-Salé-Kénitra,Not Found,Not Found
Sfafaa,24744.0,Région de Rabat-Salé-Kénitra,34.33140565,-5.993839811279006
Kceibya,33007.0,Région de Rabat-Salé-Kénitra,34.29090595,-6.16141637810909
Ameur Chamalia,21998.0,Région de Rabat-Salé-Kénitra,34.374844949999996,-6.184825282802061
Béni Mellal,209594.0,Région de Béni Mellal-Khénifra,32.334193,-6.353335
Kasba Tadla,48172.0,Région de Béni Mellal-Khénifra,32.602894,-6.269706
Zaouiat Cheikh,25088.0,Région de Béni Mellal-Khénifra,32.6441708,-5.916589
El Ksiba,19964.0,Région de Béni Mellal-Khénifra,32.568902,-6.034093
Ouled Gnaou,13366.0,Région de Béni Mellal-Khénifra,Not Found,Not Found
Ouled M'barek,21636.0,Région de Béni Mellal-Khénifra,32.274731450000004,-6.42308534618736
Foum Oudi,16256.0,Région de Béni Mellal-Khénifra,32.25131975,-6.4252516993153455
Ouled Yaich,25785.0,Région de Béni Mellal-Khénifra,32.4269202,-6.354471096480417
Sidi Jaber,20455.0,Région de Béni Mellal-Khénifra,32.371994,-6.455683
Foum El Anceur,24232.0,Région de Béni Mellal-Khénifra,32.348889,-6.239692469911529
Naour,5389.0,Région de Béni Mellal-Khénifra,32.4836284,-5.9131229
Dir El Ksiba,25851.0,Région de Béni Mellal-Khénifra,32.5736125,-6.0923675698361155
Tanougha,13773.0,Région de Béni Mellal-Khénifra,32.4411086,-6.090791090960998
Taghzirt,20023.0,Région de Béni Mellal-Khénifra,32.416197999999994,-6.182890491449951
Ait Oum El Bekht,7863.0,Région de Béni Mellal-Khénifra,32.655302899999995,-5.885170432022497
Aghbala,13373.0,Région de Béni Mellal-Khénifra,32.480569,-5.643029
Tizi N'isly,12547.0,Région de Béni Mellal-Khénifra,32.4668393,-5.7719144
Boutferda,7952.0,Région de Béni Mellal-Khénifra,32.3566884,-5.8351135
Guettaya,13153.0,Région de Béni Mellal-Khénifra,32.574195700000004,-6.313820442730278
Semguet,8167.0,Région de Béni Mellal-Khénifra,32.6396746,-6.19508747994043
Ouled Youssef,14247.0,Région de Béni Mellal-Khénifra,32.5653555,-6.488723188849754
Ouled Said Loued,13441.0,Région de Béni Mellal-Khénifra,32.57801345,-6.455589180294515
Azilal,48138.0,Région de Béni Mellal-Khénifra,31.959295,-6.570991
Demnate,33635.0,Région de Béni Mellal-Khénifra,31.732224,-7.002676
Ait M'hamed,23531.0,Région de Béni Mellal-Khénifra,31.85625275,-6.527052674718141
Ait Abbas,13548.0,Région de Béni Mellal-Khénifra,31.738616999999998,-6.605380275875713
Tabant,16401.0,Région de Béni Mellal-Khénifra,31.658726,-6.420065
Ait Bou Oulli,11992.0,Région de Béni Mellal-Khénifra,31.5646961,-6.631836826368847
Agoudi N'lkhair,11964.0,Région de Béni Mellal-Khénifra,31.97907305,-6.451202859986392
Tamda Noumercid,12959.0,Région de Béni Mellal-Khénifra,31.942929499999998,-6.658965240883667
Zaouiat Ahansal,11260.0,Région de Béni Mellal-Khénifra,31.8456029,-6.090250166633934
Tisqi,5734.0,Région de Béni Mellal-Khénifra,32.1016252,-6.806050176991973
Taounza,10254.0,Région de Béni Mellal-Khénifra,32.08137395,-6.621261712125426
Moulay Aissa Ben Driss,13409.0,Région de Béni Mellal-Khénifra,32.095117650000006,-6.7226934085769665
Bzou,13602.0,Région de Béni Mellal-Khénifra,32.093525,-7.05072
Rfala,9352.0,Région de Béni Mellal-Khénifra,32.1320484,-6.907542553213389
Ait Taguella,8662.0,Région de Béni Mellal-Khénifra,31.927235,-6.749768
Tanant,10891.0,Région de Béni Mellal-Khénifra,31.862498,-6.942027
Foum Jemaa,9373.0,Région de Béni Mellal-Khénifra,31.9616024,-6.9841396
Tabia,7354.0,Région de Béni Mellal-Khénifra,29.996342,-8.882199095053423
Bni Hassane,12390.0,Région de Béni Mellal-Khénifra,32.03489245,-6.927751874930491
Ouaoula,26410.0,Région de Béni Mellal-Khénifra,31.8644,-6.756124
Ait Majden,18538.0,Région de Béni Mellal-Khénifra,31.851449,-6.965952
Tifni,10906.0,Région de Béni Mellal-Khénifra,31.64114915,-6.954857192346999
Imlil,11175.0,Région de Béni Mellal-Khénifra,31.76378915,-6.997998733354316
Sidi Boulkhalf,16229.0,Région de Béni Mellal-Khénifra,31.7274415,-6.8339324
Ait Blal,7840.0,Région de Béni Mellal-Khénifra,31.67676675,-6.694973694606834
Ait Oumdis,13908.0,Région de Béni Mellal-Khénifra,31.4880958,-7.066127747707463
Ait Tamlil,18091.0,Région de Béni Mellal-Khénifra,31.482514,-6.945495
Anzou,16554.0,Région de Béni Mellal-Khénifra,31.67524805,-7.263633419597232
Tidili Fetouaka,13661.0,Région de Béni Mellal-Khénifra,31.71098995,-7.174479499889657
Sidi Yacoub,18868.0,Région de Béni Mellal-Khénifra,31.6311714,-7.104887685065852
Anergui,3976.0,Région de Béni Mellal-Khénifra,32.07506375,-5.964731625498878
Bin El Ouidane,4605.0,Région de Béni Mellal-Khénifra,32.1167933,-6.4299322280299975
Isseksi,1464.0,Région de Béni Mellal-Khénifra,32.230227,-6.276714
Ouaouizeght,13402.0,Région de Béni Mellal-Khénifra,32.143025550000004,-6.173976016508382
Tiffert N'ait Hamza,3784.0,Région de Béni Mellal-Khénifra,32.318468,-5.965238
Ait Ouqabli,3405.0,Région de Béni Mellal-Khénifra,32.321162599999994,-6.030385313853234
Tagleft,16412.0,Région de Béni Mellal-Khénifra,32.2276712,-6.122577236262771
Tabaroucht,3877.0,Région de Béni Mellal-Khénifra,32.133016,-6.223637163975603
Ait Mazigh,2765.0,Région de Béni Mellal-Khénifra,32.00942135,-6.346129855792222
Tilougguite,11592.0,Région de Béni Mellal-Khénifra,32.03074,-6.209478
Afourar,20215.0,Région de Béni Mellal-Khénifra,32.209533,-6.535892
Timoulilt,6852.0,Région de Béni Mellal-Khénifra,32.20758615,-6.461657585938155
Ait Ouaarda,1459.0,Région de Béni Mellal-Khénifra,32.1412442,-6.5369010952486555
Bni A'yat,23675.0,Région de Béni Mellal-Khénifra,32.2127616,-6.5854599
Fquih Ben Salah,97380.0,Région de Béni Mellal-Khénifra,32.4212148,-6.747078467867242
Souk Sebt Ouled Nemma,60293.0,Région de Béni Mellal-Khénifra,32.2921711,-6.5935279
Ouled Ayad,24564.0,Région de Béni Mellal-Khénifra,32.3030685,-6.923773048864124
Sidi Hammadi,12981.0,Région de Béni Mellal-Khénifra,32.2664361,-6.5726844617395095
Ouled Bourahmoune,14583.0,Région de Béni Mellal-Khénifra,32.2954135,-6.6668126
Sidi Aissa Ben Ali,24503.0,Région de Béni Mellal-Khénifra,32.3441519,-6.6555527
Ouled Zmam,30039.0,Région de Béni Mellal-Khénifra,32.3834768,-6.73377240401764
Krifate,28601.0,Région de Béni Mellal-Khénifra,32.47546,-6.730692
Hel Merbaa,9692.0,Région de Béni Mellal-Khénifra,32.43158525,-6.61571870365599
Khalfia,13766.0,Région de Béni Mellal-Khénifra,32.5162952,-6.5385615
Bradia,37064.0,Région de Béni Mellal-Khénifra,32.42065175,-6.507225062486969
Bni Chegdale,10413.0,Région de Béni Mellal-Khénifra,32.4424579,-6.891839515630903
Bni Oukil,14097.0,Région de Béni Mellal-Khénifra,32.576979,-6.8400198
Dar Ould Zidouh,30114.0,Région de Béni Mellal-Khénifra,32.308189049999996,-6.906540412818266
Had Boumoussa,41154.0,Région de Béni Mellal-Khénifra,32.2397783,-6.9449037
Ouled Nacer,26733.0,Région de Béni Mellal-Khénifra,31.9419631,-7.1030016
Khenifra,123738.0,Région de Béni Mellal-Khénifra,32.9357718,-5.6696504
M'rirt,46285.0,Région de Béni Mellal-Khénifra,33.163826,-5.565428
Ouaoumana,8850.0,Région de Béni Mellal-Khénifra,32.711134,-5.806639
Ait Ishaq,17847.0,Région de Béni Mellal-Khénifra,32.7630212,-5.7261667
El Kbab,14580.0,Région de Béni Mellal-Khénifra,32.741403,-5.52067
Sidi Yahya Ou Saad,6911.0,Région de Béni Mellal-Khénifra,32.680499,-5.577051
Tighassaline,15788.0,Région de Béni Mellal-Khénifra,32.7830802,-5.6528302
Ait Saadelli,2629.0,Région de Béni Mellal-Khénifra,32.6252332,-5.343737554930428
Kerrouchen,6796.0,Région de Béni Mellal-Khénifra,32.800082,-5.321974
Sidi Amar,1625.0,Région de Béni Mellal-Khénifra,32.9508096,-5.8340805
Sidi Lamine,16501.0,Région de Béni Mellal-Khénifra,32.872966,-5.953860860653764
El Borj,3266.0,Région de Béni Mellal-Khénifra,33.0344104,-5.590886686879433
Moha Ou Hammou Zayani,10444.0,Région de Béni Mellal-Khénifra,32.9558665,-5.713812703336769
Aguelmam Azegza,6781.0,Région de Béni Mellal-Khénifra,32.93219225,-5.41678019489852
Lehri,8669.0,Région de Béni Mellal-Khénifra,32.8312556,-5.592803668658279
Sidi Hcine,2510.0,Région de Béni Mellal-Khénifra,33.03637115,-6.031625668972628
Aguelmous,36560.0,Région de Béni Mellal-Khénifra,33.1575774,-5.8472009
Had Bouhssoussen,7303.0,Région de Béni Mellal-Khénifra,33.1479105,-6.0779289
Moulay Bouazza,7621.0,Région de Béni Mellal-Khénifra,33.224507,-6.197919
Sebt Ait Rahou,8018.0,Région de Béni Mellal-Khénifra,33.2151725,-6.2605976
El Hammam,9697.0,Région de Béni Mellal-Khénifra,33.28361645,-5.6609278204960845
Oum Rabia,7821.0,Région de Béni Mellal-Khénifra,33.0562088,-5.414662
Khouribga,195931.0,Région de Béni Mellal-Khénifra,32.8856482,-6.908798
Oued Zem,93776.0,Région de Béni Mellal-Khénifra,32.862504,-6.571054
Bejaad,47209.0,Région de Béni Mellal-Khénifra,32.769785,-6.394983
Boujniba,14722.0,Région de Béni Mellal-Khénifra,32.898004,-6.776919
Hattane,9727.0,Région de Béni Mellal-Khénifra,32.840638299999995,-6.804628311376975
Rouached,3353.0,Région de Béni Mellal-Khénifra,32.8631504,-6.3538865
Chougrane,5591.0,Région de Béni Mellal-Khénifra,32.8994717,-6.3825454
Tachraft,3082.0,Région de Béni Mellal-Khénifra,32.7701403,-6.4470846943807505
Ain Kaicher,3900.0,Région de Béni Mellal-Khénifra,32.7295397,-6.5860472
Bni Bataou,4191.0,Région de Béni Mellal-Khénifra,32.8275211,-6.2889985
Boukhrisse,4323.0,Région de Béni Mellal-Khénifra,32.8668447,-6.1117993
Bni Zrantel,5533.0,Région de Béni Mellal-Khénifra,32.7387786,-6.2424783
Oulad Gouaouch,2474.0,Région de Béni Mellal-Khénifra,32.7320226,-6.3644458
Bni Ykhlef,8928.0,Région de Béni Mellal-Khénifra,32.9522165,-6.8213051
Lagfaf,8560.0,Région de Béni Mellal-Khénifra,32.9231884,-6.718614
Boulanouare,15043.0,Région de Béni Mellal-Khénifra,32.8569415,-6.8789824
Bir Mezoui,5617.0,Région de Béni Mellal-Khénifra,32.9018308,-6.6814256
El Foqra,2965.0,Région de Béni Mellal-Khénifra,32.7315522,-6.942202
M'fassis,4937.0,Région de Béni Mellal-Khénifra,32.8139513,-6.7910112
Oulad Abdoune,15860.0,Région de Béni Mellal-Khénifra,32.9053419,-6.9245615
Oulad Azzouz,8983.0,Région de Béni Mellal-Khénifra,32.8396425,-6.6946193
Ait Ammar,3392.0,Région de Béni Mellal-Khénifra,33.0622705,-6.6637876
Oulad Ftata,2552.0,Région de Béni Mellal-Khénifra,33.1885644,-6.6575864
Lagnadiz,6905.0,Région de Béni Mellal-Khénifra,33.1620549,-6.8374242
Oulad Boughadi,8147.0,Région de Béni Mellal-Khénifra,33.0733097,-6.7115095
Bni Smir,6725.0,Région de Béni Mellal-Khénifra,32.8580293,-6.6580136
Kasbat Troch,8612.0,Région de Béni Mellal-Khénifra,32.9380616,-6.5782572
Maadna,5595.0,Région de Béni Mellal-Khénifra,32.9403608,-6.4949478
Oulad Fennane,6912.0,Région de Béni Mellal-Khénifra,32.9858073,-6.5770559
Braksa,6948.0,Région de Béni Mellal-Khénifra,32.9494711,-6.4070929
Oulad Aissa,4652.0,Région de Béni Mellal-Khénifra,32.923602599999995,-8.711492490718065
Casablanca,3215935.0,Région de Casablanca-Settat,33.5945144,-7.6200284
Méchouar de Casablanca,2101.0,Région de Casablanca-Settat,33.5795289,-7.6056854759701995
Mohammadia,194358.0,Région de Casablanca-Settat,33.6958383,-7.3893292
Ain Harrouda,60804.0,Région de Casablanca-Settat,33.6353722,-7.4513985
Bni Yakhlef,117653.0,Région de Casablanca-Settat,33.6852601,-7.3386583
Ech-challalate,98015.0,Région de Casablanca-Settat,Not Found,Not Found
Sidi Moussa Ben Ali,12973.0,Région de Casablanca-Settat,33.5593266,-7.3817878
Sidi Moussa El Majdoub,30254.0,Région de Casablanca-Settat,33.6062273,-7.385992
El Jadida,237464.0,Région de Casablanca-Settat,33.22932285,-8.499356736652636
Azemmour,42098.0,Région de Casablanca-Settat,33.2751698,-8.3430934
Lbir Jdid,30247.0,Région de Casablanca-Settat,33.3635128,-7.980263326022779
Lamharza Essahel,20929.0,Région de Casablanca-Settat,33.4050419,-8.1268152
Laghdira,26192.0,Région de Casablanca-Settat,33.2971585,-8.037232919312753
Sidi Ali Ben Hamdouche,38169.0,Région de Casablanca-Settat,33.2861897,-8.3263607
Chtouka,38025.0,Région de Casablanca-Settat,33.3132865,-8.165285
Haouzia,35777.0,Région de Casablanca-Settat,33.3063826,-8.3547988
Oulad Rahmoune,33380.0,Région de Casablanca-Settat,33.18140065,-8.32981025418114
My Abdellah,103993.0,Région de Casablanca-Settat,33.24130755,-8.498899669148265
Ouled Hcine,36018.0,Région de Casablanca-Settat,33.081516050000005,-8.454695407592002
Sidi M'hamed Akhdim,11038.0,Région de Casablanca-Settat,32.79903635,-8.7323881328375
Ouled Ghanem,27895.0,Région de Casablanca-Settat,32.8739338,-8.8588111
Sidi Abed,25935.0,Région de Casablanca-Settat,33.030626,-8.640571589823637
Oulad Aissa,25367.0,Région de Casablanca-Settat,32.923602599999995,-8.711492490718065
Oulad Sidi Ali Ben Youssef,9641.0,Région de Casablanca-Settat,33.01108405,-8.095606999493615
Ouled Frej,20176.0,Région de Casablanca-Settat,32.9536463,-8.2194183
Zaouiat Lakouacem,11490.0,Région de Casablanca-Settat,32.91122525,-8.324707143692063
Si Hsaien Ben Abderrahmane,6014.0,Région de Casablanca-Settat,33.099536549999996,-8.155722168630957
Chaibate,9821.0,Région de Casablanca-Settat,33.0235727,-8.315098599777333
Oulad Hamdane,12130.0,Région de Casablanca-Settat,33.1337124,-8.24785557645084
Mettouh,26075.0,Région de Casablanca-Settat,32.890686849999994,-8.179632890570932
Boulaouane,14740.0,Région de Casablanca-Settat,32.863798,-8.060124
Mogress,16277.0,Région de Casablanca-Settat,32.8945628,-8.45934135645275
Sidi Smail,32694.0,Région de Casablanca-Settat,32.827312,-8.51366
Sebt Saiss,11052.0,Région de Casablanca-Settat,32.77032975,-8.63639671412528
Zaouiat Saiss,11730.0,Région de Casablanca-Settat,32.794091,-8.651519
Nouaceur,36326.0,Région de Casablanca-Settat,33.3678533,-7.5681451
Bouskoura,200359.0,Région de Casablanca-Settat,33.456443,-7.650666
Dar Bouazza,302970.0,Région de Casablanca-Settat,33.5215831,-7.8164369
Oulad Azzouz,81048.0,Région de Casablanca-Settat,32.8396425,-6.6946193
Ouled Salah,51621.0,Région de Casablanca-Settat,33.4333091,-7.6407038
Tit Mellil,56019.0,Région de Casablanca-Settat,33.551412,-7.483552
Mediouna,29972.0,Région de Casablanca-Settat,35.7718665,-5.9089654
Lahraouyine,87977.0,Région de Casablanca-Settat,33.540830299999996,-7.524186062486135
Sidi Hajjaj Oued Hassar,76362.0,Région de Casablanca-Settat,33.516653149999996,-7.440592856116206
Almajjatia Oulad Taleb,95457.0,Région de Casablanca-Settat,Not Found,Not Found
Benslimane,67317.0,Région de Casablanca-Settat,33.61238965,-7.1440174442748585
Bouznika,55722.0,Région de Casablanca-Settat,33.781005,-7.1610294
El Mansouria,29139.0,Région de Casablanca-Settat,33.740396,-7.292191
Fdalate,12700.0,Région de Casablanca-Settat,33.567887,-7.305351
Oulad Yahya Louta,9612.0,Région de Casablanca-Settat,33.5452578,-7.192726292577715
Moualine El Oued,9117.0,Région de Casablanca-Settat,33.4515312,-7.287657823483801
Ahlaf,12116.0,Région de Casablanca-Settat,33.28785,-7.204819
Rdadna Oulad Malek,4170.0,Région de Casablanca-Settat,33.3612521,-7.2208505
Mellila,15692.0,Région de Casablanca-Settat,33.3894614,-7.1474588
Oulad Ali Toualaa,5475.0,Région de Casablanca-Settat,33.4598394,-7.194391
Ziaida,14092.0,Région de Casablanca-Settat,33.491876,-7.10425
Charrate,11266.0,Région de Casablanca-Settat,33.7714621,-7.088613571396527
Sidi Bettache,7595.0,Région de Casablanca-Settat,33.51037115,-6.863701461577979
Bir Ennasr,4256.0,Région de Casablanca-Settat,33.3321168,-6.892948885345157
Ain Tizgha,21248.0,Région de Casablanca-Settat,33.6525838,-7.057508749359366
Berrechid,168687.0,Région de Casablanca-Settat,33.2676746,-7.5811465
El Gara,20467.0,Région de Casablanca-Settat,33.277113,-7.2331554
Oulad Abbou,10894.0,Région de Casablanca-Settat,33.1135698,-7.9339205
Sidi Rahal Chatai,34431.0,Région de Casablanca-Settat,33.440627899999996,-7.965564088542359
Had Soualem,74762.0,Région de Casablanca-Settat,33.422256,-7.8534097
Deroua,96619.0,Région de Casablanca-Settat,33.3717782,-7.5358349
Lahsasna,10854.0,Région de Casablanca-Settat,33.1887236,-7.684332
Sidi El Mekki,9476.0,Région de Casablanca-Settat,33.2121811,-7.7165064
Zaouiat Sidi Ben Hamdoun,9315.0,Région de Casablanca-Settat,33.09582015,-7.829376721208275
Ben Maachou,8338.0,Région de Casablanca-Settat,33.187486449999994,-8.023176886094982
Sidi Abdelkhaleq,6141.0,Région de Casablanca-Settat,33.08262215,-8.008089647671374
Laghnimyine,18081.0,Région de Casablanca-Settat,33.1981538,-7.8516998307291574
Sahel Oulad H'riz,43776.0,Région de Casablanca-Settat,33.34788225,-7.8571450969790515
Soualem Trifiya,45285.0,Région de Casablanca-Settat,33.45389205,-7.868257925883958
Oulad Ziyane,20004.0,Région de Casablanca-Settat,33.4094192,-7.473238954717483
Kasbat Ben Mchich,15374.0,Région de Casablanca-Settat,33.3534603,-7.4809872
Jaqma,10733.0,Région de Casablanca-Settat,33.2923704,-7.4404704
Lambarkiyne,8863.0,Région de Casablanca-Settat,Not Found,Not Found
Riah,8421.0,Région de Casablanca-Settat,33.1733591,-7.390307994798759
Foqra Oulad Aameur,6093.0,Région de Casablanca-Settat,33.13381375,-7.515063749365446
Ouled Cebbah,7489.0,Région de Casablanca-Settat,33.272386600000004,-7.3080624523218605
Ouled Zidane,6554.0,Région de Casablanca-Settat,33.354198100000005,-7.364048300276532
Settat,171556.0,Région de Casablanca-Settat,33.002397,-7.619867
Ben Ahmed,33469.0,Région de Casablanca-Settat,33.0652251,-7.2455078
Loulad,5772.0,Région de Casablanca-Settat,32.991959,-7.128576
Oulad M'rah,8027.0,Région de Casablanca-Settat,32.9128877,-7.266988113172518
El Borouj,19438.0,Région de Casablanca-Settat,32.504976,-7.192731
N'khila,12787.0,Région de Casablanca-Settat,32.917009050000004,-7.076244821651473
Lakhzazra,7455.0,Région de Casablanca-Settat,33.030526,-7.042301
M'garto,7508.0,Région de Casablanca-Settat,33.1758062,-7.1561015
Sidi Dahbi,8972.0,Région de Casablanca-Settat,33.0577055,-7.1824858
Ouled M'hamed,9081.0,Région de Casablanca-Settat,33.02821505,-7.075650604963011
Ain Dorbane-Lahlaf,9151.0,Région de Casablanca-Settat,33.0295103,-7.269522648822048
Bouguargouh,9718.0,Région de Casablanca-Settat,33.1153419,-7.3301554
Sidi Abdelkrim,13759.0,Région de Casablanca-Settat,33.1870753,-7.2334462
Mniaa,11088.0,Région de Casablanca-Settat,32.8667881,-7.2604638
Sidi Hajjaj,22360.0,Région de Casablanca-Settat,32.92000675,-7.363722956653591
Oulad Fares,12096.0,Région de Casablanca-Settat,32.7895871,-7.2105537
Mrizigue,7926.0,Région de Casablanca-Settat,32.8466234,-7.0984769
Sgamna,9427.0,Région de Casablanca-Settat,32.7342975,-7.2033868
Oulad Chbana,9513.0,Région de Casablanca-Settat,33.048998,-7.38217
Oued Naanaa,7075.0,Région de Casablanca-Settat,33.021548,-7.332088
Ras El Ain Chaouia,14244.0,Région de Casablanca-Settat,32.99329615,-7.404941957726109
Oulad Fares El Halla,2521.0,Région de Casablanca-Settat,32.5060738,-7.1263516
Oulad Bouali Nouaja,5393.0,Région de Casablanca-Settat,32.5930734,-7.0838225
Meskoura,6159.0,Région de Casablanca-Settat,32.6250277,-7.21892
Oulad Amer,5871.0,Région de Casablanca-Settat,32.4487619,-7.2139011
Laqraqra,10493.0,Région de Casablanca-Settat,32.409169649999995,-7.118706609070225
Bni Khloug,12092.0,Région de Casablanca-Settat,32.643186,-7.380796
Sidi Boumehdi,4150.0,Région de Casablanca-Settat,32.6973182,-7.3220902
Sidi Ahmed El Khadir,9731.0,Région de Casablanca-Settat,32.515662,-7.346765
Ain Blal,3992.0,Région de Casablanca-Settat,32.5234399,-7.6148619
Oulad Freiha,11410.0,Région de Casablanca-Settat,32.6109675,-7.6248971
Dar Chaffai,17411.0,Région de Casablanca-Settat,32.548388,-7.500463
Sidi El Aidi,14165.0,Région de Casablanca-Settat,33.1225681,-7.6242148
Mzamza Janoubia,22419.0,Région de Casablanca-Settat,32.99667905,-7.5230921994490805
Khemisset Chaouia,5104.0,Région de Casablanca-Settat,32.8461081,-7.7559287
Oulad Said,8745.0,Région de Casablanca-Settat,32.9675641,-7.813319
Lahouaza,7018.0,Région de Casablanca-Settat,32.9139977,-7.7018664
Mzoura,8426.0,Région de Casablanca-Settat,32.8327674,-7.8687642
Gdana,8462.0,Région de Casablanca-Settat,32.9622023,-7.971455418255518
Guisser,12189.0,Région de Casablanca-Settat,32.7641828,-7.494253554878629
Rima,8203.0,Région de Casablanca-Settat,32.7666696,-7.3959239
Oulad Sghir,13153.0,Région de Casablanca-Settat,32.85404845,-7.572476983949992
Bni Yagrine,13099.0,Région de Casablanca-Settat,32.727654,-7.565624560859875
Toualet,11822.0,Région de Casablanca-Settat,32.7770283,-7.6670095
Machraa Ben Abbou,9331.0,Région de Casablanca-Settat,32.6466661,-7.800893
Sidi Mohammed Ben Rahal,10511.0,Région de Casablanca-Settat,32.777533,-7.7725045
Sidi Bennour,56201.0,Région de Casablanca-Settat,32.6507792,-8.4242087
Zmamra,13993.0,Région de Casablanca-Settat,32.61619575,-8.704357459742038
Loualidia,21742.0,Région de Casablanca-Settat,32.7097639,-8.96260183957283
Lmechrek,15770.0,Région de Casablanca-Settat,32.6933136,-8.4525962
Oulad Si Bouhya,18535.0,Région de Casablanca-Settat,32.72499295,-8.322376072643952
Laatatra,18928.0,Région de Casablanca-Settat,32.592277800000005,-8.409949948435198
Bouhmame,23637.0,Région de Casablanca-Settat,32.602212300000005,-8.493047835021041
Jabria,21071.0,Région de Casablanca-Settat,32.56888095,-8.32474910876562
M'tal,8773.0,Région de Casablanca-Settat,32.50668895,-8.395723913366172
Laamria,9957.0,Région de Casablanca-Settat,32.817412700000006,-8.26698319127287
Bni Hilal,16767.0,Région de Casablanca-Settat,32.803472049999996,-8.37688852109558
Bni Tsiriss,12794.0,Région de Casablanca-Settat,32.72837355,-8.107241370762003
Laaounate,17486.0,Région de Casablanca-Settat,32.68445265,-8.181810603939923
Metrane,9201.0,Région de Casablanca-Settat,32.634427200000005,-8.245396006436224
Oulad Boussaken,5962.0,Région de Casablanca-Settat,32.5565292,-8.137955254731809
Khmis Ksiba,5249.0,Région de Casablanca-Settat,32.51402830000001,-8.209907426692853
Koudiat Bni Dghough,15550.0,Région de Casablanca-Settat,32.42909655,-8.483905671178363
Tamda,9043.0,Région de Casablanca-Settat,32.439687000000006,-8.339178400586912
Oulad Amrane,12059.0,Région de Casablanca-Settat,32.37081215,-8.533669036281777
Kridid,14259.0,Région de Casablanca-Settat,32.4992389,-8.604754401001294
Laagagcha,14059.0,Région de Casablanca-Settat,32.547393,-8.724821
Lgharbia,22622.0,Région de Casablanca-Settat,32.57996835,-8.871974228483086
Oulad Sbaita,25231.0,Région de Casablanca-Settat,32.6670554,-8.805470870633247
Laghnadra,34680.0,Région de Casablanca-Settat,32.64480695,-8.649652209372695
Saniat Berguig,28361.0,Région de Casablanca-Settat,32.692674350000004,-8.556343666780226
Marrakech,1002697.0,Région de Marrakech-Safi,31.6258257,-7.9891608
Méchouar-Kasba,12116.0,Région de Marrakech-Safi,31.5971984,-7.987058133174472
Tassoultante,106013.0,Région de Marrakech-Safi,31.54457525,-7.982167364261917
Loudaya,41761.0,Région de Marrakech-Safi,31.6448217,-8.278046610498631
Ait Imour,14603.0,Région de Marrakech-Safi,31.54927695,-8.347015298287989
Agafay,17771.0,Région de Marrakech-Safi,31.4872129,-8.1970725
Sid Zouine,17130.0,Région de Marrakech-Safi,31.6681645,-8.3461335
Souihla,32506.0,Région de Marrakech-Safi,31.61618695,-8.215423992633983
Saada,91903.0,Région de Marrakech-Safi,31.6182612,-8.13140483682016
Harbil,105790.0,Région de Marrakech-Safi,31.790602800000002,-8.098879712163964
M'nabha,13565.0,Région de Marrakech-Safi,31.957395499999997,-8.115993621978411
Ouled Dlim,14468.0,Région de Marrakech-Safi,31.904666499999998,-8.282613957634283
Ouahat Sidi Brahim,36493.0,Région de Marrakech-Safi,31.726827,-7.959864433419834
Al Ouidane,37450.0,Région de Marrakech-Safi,31.62978045,-7.879913063851532
Oulad Hassoune,27314.0,Région de Marrakech-Safi,31.6361335,-7.792903292809807
Chichaoua,38452.0,Région de Marrakech-Safi,31.5463197,-8.7602644
Imintanoute,25049.0,Région de Marrakech-Safi,31.1735007,-8.8519207
Ait Hadi,8847.0,Région de Marrakech-Safi,31.3901442,-8.783580837943617
Sidi Bouzid Arragragui,8622.0,Région de Marrakech-Safi,31.4867229,-8.789543618287102
Lamzoudia,27004.0,Région de Marrakech-Safi,31.5801056,-8.4914511
Oulad Moumna,7092.0,Région de Marrakech-Safi,31.457506600000002,-9.016222644083495
Sid L'mokhtar,27083.0,Région de Marrakech-Safi,31.5946942,-9.038648055180138
Ahdil,11130.0,Région de Marrakech-Safi,31.6127252,-8.867679632955312
Sidi M'hamed Dalil,5619.0,Région de Marrakech-Safi,31.397528100000002,-8.695124653262543
Saidate,6354.0,Région de Marrakech-Safi,31.368345,-8.870419977559678
Nfifa,6282.0,Région de Marrakech-Safi,31.23965065,-8.858951642577335
Ouad L'bour,4918.0,Région de Marrakech-Safi,31.20872835,-8.908223197515937
Afalla Issen,7221.0,Région de Marrakech-Safi,30.9909182,-8.9771079
Timezgadiouine,6780.0,Région de Marrakech-Safi,30.885544,-9.044818
Irohalen,5031.0,Région de Marrakech-Safi,31.065851600000002,-8.935365254272515
Ain Tazitounte,4651.0,Région de Marrakech-Safi,31.1272797,-8.9247195
Sidi Ghanem,8397.0,Région de Marrakech-Safi,32.6924281,-7.987943164019293
Ait Haddou Youssef,5174.0,Région de Marrakech-Safi,30.9375379,-8.722673
Lalla Aaziza,7534.0,Région de Marrakech-Safi,31.05966265,-8.675163226619883
Bouabout Amdlane,6405.0,Région de Marrakech-Safi,31.188465049999998,-9.222059105106835
Rahhala,4859.0,Région de Marrakech-Safi,31.3407221,-9.074532861533257
Bouabout,9825.0,Région de Marrakech-Safi,31.30213235,-9.219114113565624
Kouzemt,3371.0,Région de Marrakech-Safi,31.08410045,-9.279992310040864
Timlilt,5582.0,Région de Marrakech-Safi,31.008328249999998,-9.1038350813138
Ichamraren,5707.0,Région de Marrakech-Safi,31.1254451,-9.11463468358816
Sidi Abdelmoumen,7055.0,Région de Marrakech-Safi,31.28504365,-8.989526483171772
Taouloukoult,9362.0,Région de Marrakech-Safi,31.21522485,-9.105159400400956
Gmassa,10675.0,Région de Marrakech-Safi,31.4203085,-8.365832783806681
Majjat,14708.0,Région de Marrakech-Safi,31.45983935,-8.53915565515134
Douirane,17256.0,Région de Marrakech-Safi,31.1954915,-8.734072445706445
Zaouia Annahlia,11722.0,Région de Marrakech-Safi,31.21966565,-8.64321340683742
M'zouda,25342.0,Région de Marrakech-Safi,31.23016885,-8.521953903616833
Assif El Mal,8002.0,Région de Marrakech-Safi,31.260960400000002,-8.433935189223439
Adassil,7078.0,Région de Marrakech-Safi,31.110892,-8.494879
Imindounit,10890.0,Région de Marrakech-Safi,31.030233250000002,-8.515527161732223
Ait Ourir,56954.0,Région de Marrakech-Safi,31.563898,-7.662276
Amizmiz,13840.0,Région de Marrakech-Safi,31.2171012,-8.2332754
Tahannaout,16236.0,Région de Marrakech-Safi,31.3672735,-7.9447676
Ait Sidi Daoud,21010.0,Région de Marrakech-Safi,31.6344693,-7.6857162
Ait Faska,33076.0,Région de Marrakech-Safi,31.54104305,-7.679019221622674
Sidi Abdellah Ghiat,43237.0,Région de Marrakech-Safi,31.5106075,-7.833295678726914
Tamazouzte,16886.0,Région de Marrakech-Safi,31.494387449999998,-7.787829804202373
Iguerferouane,12432.0,Région de Marrakech-Safi,31.41144025,-7.674131492051929
Ghmate,28674.0,Région de Marrakech-Safi,31.421368700000002,-7.804721003018043
Tidili Mesfioua,20283.0,Région de Marrakech-Safi,31.462057,-7.60825
Tamaguert,10022.0,Région de Marrakech-Safi,31.5392984,-7.523757035541383
Touama,11401.0,Région de Marrakech-Safi,31.54716195,-7.4782190305475
Zerkten,18335.0,Région de Marrakech-Safi,31.39903415,-7.347783254112166
Tighedouine,21161.0,Région de Marrakech-Safi,31.37511125,-7.524511799030136
Ait Aadel,8724.0,Région de Marrakech-Safi,31.5996117,-7.261731735798824
Ait Hkim-Ait Yzid,8104.0,Région de Marrakech-Safi,31.47977775,-7.20374160393996
Abadou,10484.0,Région de Marrakech-Safi,31.5801468,-7.3129705
Tazart,14584.0,Région de Marrakech-Safi,31.5713225,-7.380601041474062
Asni,22637.0,Région de Marrakech-Safi,31.2496355,-7.980004
Ighil,4666.0,Région de Marrakech-Safi,31.00592095,-8.355568228056999
Aghbar,3447.0,Région de Marrakech-Safi,30.9037704,-8.4054025
Talat N'yaaqoub,7153.0,Région de Marrakech-Safi,30.9904992,-8.1849237
Ijoukak,5633.0,Région de Marrakech-Safi,30.9993443,-8.1585674
Imgdal,4782.0,Région de Marrakech-Safi,31.1096936,-8.1335855
Ouirgane,7687.0,Région de Marrakech-Safi,31.175727,-8.0789
Amghras,5966.0,Région de Marrakech-Safi,31.210452,-8.182755
Anougal,4006.0,Région de Marrakech-Safi,31.119701,-8.273362278097535
Azgour,6208.0,Région de Marrakech-Safi,31.12213495,-8.36239154010436
Tizguine,5185.0,Région de Marrakech-Safi,31.2628213,-8.314533054029107
Dar Jamaa,6184.0,Région de Marrakech-Safi,31.2517184,-8.375272417573953
Sidi Badhaj,5835.0,Région de Marrakech-Safi,31.33734835,-8.212488379224322
Oulad Mtaa,6915.0,Région de Marrakech-Safi,31.31860275,-8.27341530454884
Lalla Takarkoust,8419.0,Région de Marrakech-Safi,31.3585285,-8.1314308
Ouazguita,5270.0,Région de Marrakech-Safi,31.26007525,-8.08492995441601
Ourika,50558.0,Région de Marrakech-Safi,31.3780274,-7.8048323
Sti Fadma,24159.0,Région de Marrakech-Safi,31.23578195,-7.691641816263875
Oukaimden,4790.0,Région de Marrakech-Safi,31.6267173,-7.9893473
Aghouatim,36258.0,Région de Marrakech-Safi,31.3747501,-7.934668712614582
Moulay Brahim,11331.0,Région de Marrakech-Safi,31.2858455,-7.9654578
Tameslohte,40283.0,Région de Marrakech-Safi,Not Found,Not Found
Kelâat Sraghna,106418.0,Région de Marrakech-Safi,32.043978949999996,-7.384116142671299
Laattaouia,38405.0,Région de Marrakech-Safi,31.8358768,-7.3133564
Sidi Rahal,10276.0,Région de Marrakech-Safi,32.84798325,-7.934620292597797
Tamallalt,20528.0,Région de Marrakech-Safi,31.8240817,-7.528425076869896
Oulad Aarrad,6065.0,Région de Marrakech-Safi,31.8333373,-7.416440171048198
Choara,12249.0,Région de Marrakech-Safi,31.786391549999998,-7.311855640209609
Laattaouia Ech-Chaibia,5910.0,Région de Marrakech-Safi,Not Found,Not Found
Dzouz,11527.0,Région de Marrakech-Safi,31.85910715,-7.279020167463795
Fraita,10721.0,Région de Marrakech-Safi,31.9334566,-7.265501931171986
Laatamna,9318.0,Région de Marrakech-Safi,31.91576355,-7.356184653639652
Ouargui,10788.0,Région de Marrakech-Safi,31.834317749999997,-7.201646323615435
Bouya Omar,14701.0,Région de Marrakech-Safi,31.7716372,-7.2031128479222275
Assahrij,16313.0,Région de Marrakech-Safi,31.78816235,-7.152294972021339
Sour El Aaz,3755.0,Région de Marrakech-Safi,31.851804350000002,-7.049068575669631
Oulad Khallouf,9172.0,Région de Marrakech-Safi,31.7980665,-7.071555016365932
Louad Lakhdar,9125.0,Région de Marrakech-Safi,Not Found,Not Found
M'zem Sanhaja,10946.0,Région de Marrakech-Safi,31.991878,-7.128969514671651
Sidi Aissa Ben Slimane,19164.0,Région de Marrakech-Safi,31.950491749999998,-7.198350708686496
Zemrane,14995.0,Région de Marrakech-Safi,31.7043424,-7.5216182908387506
Zemrane Charqia,29569.0,Région de Marrakech-Safi,31.7634636,-7.371616111298115
Jouala,10283.0,Région de Marrakech-Safi,31.89628595,-7.482185608012145
Jbiel,10593.0,Région de Marrakech-Safi,31.97226195,-7.4759376237046204
Oulad Sbih,6513.0,Région de Marrakech-Safi,32.054576,-7.511661993483912
Hiadna,12870.0,Région de Marrakech-Safi,32.24410585,-7.678969198966041
Oulad Zarrad,13243.0,Région de Marrakech-Safi,32.113111700000005,-7.655503534257954
Oulad Cherki,7185.0,Région de Marrakech-Safi,32.2838345,-7.4386339787716995
El Marbouh,9468.0,Région de Marrakech-Safi,32.113879850000004,-7.403450049621422
Mayate,11443.0,Région de Marrakech-Safi,32.2433436,-7.551802169893314
Znada,7230.0,Région de Marrakech-Safi,32.048707949999994,-7.363813958459875
Oulad Yaacoub,6791.0,Région de Marrakech-Safi,32.01952715,-7.290195698741222
Oulad El Garne,7728.0,Région de Marrakech-Safi,32.129660799999996,-7.338883446351538
Lounasda,10866.0,Région de Marrakech-Safi,32.1914883,-7.403683130648837
El Aamria,8625.0,Région de Marrakech-Safi,32.2128217,-7.250099465830905
Sidi El Hattab,9638.0,Région de Marrakech-Safi,32.3455278,-7.3106366639838924
Sidi Moussa,8600.0,Région de Marrakech-Safi,32.252591100000004,-7.215459373570396
Oulad Msabbel,6216.0,Région de Marrakech-Safi,32.307994550000004,-7.227989695190544
Oulad Massaoud,4188.0,Région de Marrakech-Safi,32.2265857,-7.175873790509911
Eddachra,6939.0,Région de Marrakech-Safi,32.20646645,-7.142338099586949
Oulad Aamer,6996.0,Région de Marrakech-Safi,32.0735599,-7.178473268018966
Oulad Bouali Loued,6302.0,Région de Marrakech-Safi,32.1247112,-7.192676816098635
Errafiaya,4903.0,Région de Marrakech-Safi,32.14484395,-7.264113955088493
Taouzint,5217.0,Région de Marrakech-Safi,32.0785054,-7.291951643570502
Chtaiba,8491.0,Région de Marrakech-Safi,32.18665785,-7.322948784086739
Essaouira,82962.0,Région de Marrakech-Safi,31.5118281,-9.7620903
El Hanchane,5319.0,Région de Marrakech-Safi,31.5240699,-9.4353881
Talmest,4638.0,Région de Marrakech-Safi,31.81853895,-9.343676083337462
Ait Daoud,3653.0,Région de Marrakech-Safi,31.0804675,-9.3512648
Tamanar,11617.0,Région de Marrakech-Safi,31.003117,-9.678242
Had Dra,9435.0,Région de Marrakech-Safi,31.61298235,-9.534732475323246
Takate,9993.0,Région de Marrakech-Safi,31.67612315,-9.487147991213384
Ounagha,13310.0,Région de Marrakech-Safi,31.53312,-9.548635
Moulay Bouzarqtoune,5608.0,Région de Marrakech-Safi,31.6455633,-9.6759934
Aquermoud,15981.0,Région de Marrakech-Safi,31.77174735,-9.542556303384497
Sidi Ishaq,10055.0,Région de Marrakech-Safi,31.8692386,-9.4497018
Sidi Ali El Korati,6099.0,Région de Marrakech-Safi,31.8030377,-9.4070631
Zaouiat Ben Hmida,7317.0,Région de Marrakech-Safi,31.734467799999997,-9.362473577090652
M'khalif,5062.0,Région de Marrakech-Safi,31.87963585,-9.244261075322292
Sidi Abdeljalil,6056.0,Région de Marrakech-Safi,31.81705075,-9.286508899312693
Sidi Laaroussi,10604.0,Région de Marrakech-Safi,31.81470465,-9.192366613757642
Oulad M'rabet,3951.0,Région de Marrakech-Safi,31.6037233,-9.174264997739632
Tafetachte,7342.0,Région de Marrakech-Safi,31.62407615,-9.293489127911737
Mejji,6479.0,Région de Marrakech-Safi,31.55963275,-9.344117207261979
Kechoula,5934.0,Région de Marrakech-Safi,31.5329928,-9.242490628134167
Mzilate,3573.0,Région de Marrakech-Safi,31.717837799999998,-9.137095414214915
Sidi M'hamed Ou Marzouq,4306.0,Région de Marrakech-Safi,31.7383252,-9.049984330612165
M'ramer,6488.0,Région de Marrakech-Safi,31.6854514,-9.189255554601123
Sidi Boulaalam,7681.0,Région de Marrakech-Safi,31.68669075,-9.27095534120582
Sidi Aissa Regragui,7567.0,Région de Marrakech-Safi,31.681932,-9.383469430912896
Meskala,4378.0,Région de Marrakech-Safi,31.380766,-9.372208605291572
Mouarid,5320.0,Région de Marrakech-Safi,31.4004654,-9.177705117197668
Korimate,9526.0,Région de Marrakech-Safi,31.45847455,-9.266455611230999
Lahsinate,4932.0,Région de Marrakech-Safi,31.53811015,-9.475756063576869
Ait Said,6027.0,Région de Marrakech-Safi,31.436504,-9.456185421947612
Lagdadra,6699.0,Région de Marrakech-Safi,31.5519198,-9.42762187502336
Adaghas,1656.0,Région de Marrakech-Safi,30.8854046,-9.2973309
Assais,4442.0,Région de Marrakech-Safi,30.9225328,-9.231917020933107
Bouzemmour,3940.0,Région de Marrakech-Safi,31.01432235,-9.432082528939123
Aglif,6499.0,Région de Marrakech-Safi,31.1115476,-9.3787735
Takoucht,3209.0,Région de Marrakech-Safi,31.2202383,-9.462288403147788
Sidi Ghaneme,4161.0,Région de Marrakech-Safi,31.286474400000003,-9.46764677471246
Ezzaouite,5818.0,Région de Marrakech-Safi,31.322823,-9.482377817718351
Tahelouante,2910.0,Région de Marrakech-Safi,31.177038699999997,-9.323555525362046
Bizdad,7077.0,Région de Marrakech-Safi,31.28291505,-9.338874515175595
Sidi Kaouki,4877.0,Région de Marrakech-Safi,31.38751705,-9.729511293677135
Aguerd,5370.0,Région de Marrakech-Safi,31.4215964,-9.617197737425572
Sidi H'mad Ou Hamed,3548.0,Région de Marrakech-Safi,31.34726095,-9.68279689959411
Tidzi,3770.0,Région de Marrakech-Safi,31.269179450000003,-9.66021495248959
Sidi El Jazouli,5554.0,Région de Marrakech-Safi,31.3411247,-9.563027421689213
Imi-N'tlit,7179.0,Région de Marrakech-Safi,31.2318675,-9.590724752613308
Smimou,8883.0,Région de Marrakech-Safi,31.2097051,-9.7036625
Tafedna,4999.0,Région de Marrakech-Safi,31.09183445,-9.718948681595398
Sidi Ahmed Essayeh,5233.0,Région de Marrakech-Safi,31.2488791,-9.771259202437916
Ida Ou Aazza,7635.0,Région de Marrakech-Safi,31.161260050000003,-9.729013520399
Ait Aissa Ihahane,2563.0,Région de Marrakech-Safi,Not Found,Not Found
Imgrade,4817.0,Région de Marrakech-Safi,31.1127575,-9.586653218340496
Targante,6392.0,Région de Marrakech-Safi,31.030223499999998,-9.605072721027037
Timzguida-Ouftas,4952.0,Région de Marrakech-Safi,Not Found,Not Found
Sidi Hmad Ou M'barek,4726.0,Région de Marrakech-Safi,30.850633000000002,-9.694998498849888
Ida Ou Kazzou,3511.0,Région de Marrakech-Safi,30.94058655,-9.578981224389908
Ida Ou Guelloul,5086.0,Région de Marrakech-Safi,30.9396061,-9.699934281343992
Ben Guerir,114872.0,Région de Marrakech-Safi,32.239034,-7.958131
Sidi Bou Othmane,12490.0,Région de Marrakech-Safi,31.901685,-7.941499
Jaafra,10689.0,Région de Marrakech-Safi,32.37869585,-7.750654703840914
Sidi Abdellah,9447.0,Région de Marrakech-Safi,34.0780634,-6.7677144
Skoura Lhadra,7877.0,Région de Marrakech-Safi,32.470779050000004,-7.758099915563786
Sidi Ghanem,8039.0,Région de Marrakech-Safi,32.6924281,-7.987943164019293
Sidi Mansour,4766.0,Région de Marrakech-Safi,32.450137850000004,-8.080130478276073
Skhour Rhamna,15565.0,Région de Marrakech-Safi,32.4699106,-7.958075323899516
Sidi Ali Labrahla,6718.0,Région de Marrakech-Safi,32.2089534,-8.0224887
Oulad Hassoune Hamri,7792.0,Région de Marrakech-Safi,32.2920337,-7.920073040656977
Labrikiyne,12185.0,Région de Marrakech-Safi,32.2942604,-8.073879
Oulad Aamer Tizmarine,4533.0,Région de Marrakech-Safi,32.2455861,-8.374902058350727
Ait Hammou,7211.0,Région de Marrakech-Safi,32.212368749999996,-8.261889017653303
Bouchane,9610.0,Région de Marrakech-Safi,32.3439447,-8.37507473556213
Ait Taleb,8075.0,Région de Marrakech-Safi,32.38309805,-8.185822720546714
Bourrous,6316.0,Région de Marrakech-Safi,31.7583523,-7.779556676203489
Sidi Boubker,5728.0,Région de Marrakech-Safi,31.84909815,-7.748032803354201
Jbilate,11511.0,Région de Marrakech-Safi,31.83188295,-7.919367251841547
Nzalat Laadam,19635.0,Région de Marrakech-Safi,32.1004462,-7.9513138
Lamharra,9476.0,Région de Marrakech-Safi,32.05995605,-7.70594379294522
Oulad Imloul,9659.0,Région de Marrakech-Safi,32.08377555,-7.862543934799527
Akarma,4795.0,Région de Marrakech-Safi,31.89978625,-7.628466675738371
Tlauh,9596.0,Région de Marrakech-Safi,31.80482675,-7.608401572467327
Jaidate,13193.0,Région de Marrakech-Safi,31.69685195,-7.738473306522126
Ras Ain Rhamna,16330.0,Région de Marrakech-Safi,31.7014161,-7.638812431744898
Safi,323888.0,Région de Marrakech-Safi,32.2650776,-9.230554032530662
Jamaat Shaim,11865.0,Région de Marrakech-Safi,32.349518,-8.841235
Sebt Gzoula,24600.0,Région de Marrakech-Safi,32.108297,-9.084263
Lamrasla,17997.0,Région de Marrakech-Safi,32.01561045,-8.902267940737838
Sidi Ettiji,17197.0,Région de Marrakech-Safi,32.1482246,-8.907405858773547
Bouguedra,15707.0,Région de Marrakech-Safi,32.254175,-8.982826
Chahda,10449.0,Région de Marrakech-Safi,32.3360644,-8.91880609402371
Lahdar,12809.0,Région de Marrakech-Safi,32.44781865,-8.796560890789626
Labkhati,13731.0,Région de Marrakech-Safi,32.4072401,-8.67750927488753
Lamsabih,10443.0,Région de Marrakech-Safi,32.2937082,-8.659536041139626
El Gouraani,10859.0,Région de Marrakech-Safi,32.3147031,-8.77504535766115
Sidi Aissa,9528.0,Région de Marrakech-Safi,32.41333325,-8.905163266491936
Moul El Bergui,18856.0,Région de Marrakech-Safi,32.505522150000004,-8.972631997194238
Dar Si Aissa,11949.0,Région de Marrakech-Safi,32.38470755,-9.03500864928022
Saadla,18134.0,Région de Marrakech-Safi,32.34177295,-9.113441290495444
Ayir,30870.0,Région de Marrakech-Safi,32.6044577,-9.097373734516626
El Beddouza,14278.0,Région de Marrakech-Safi,32.537923750000004,-9.222128431052742
Hrara,30025.0,Région de Marrakech-Safi,32.4220966,-9.17563148604454
Khatazakane,16691.0,Région de Marrakech-Safi,32.217341,-9.1381371
Ouled Salmane,16457.0,Région de Marrakech-Safi,32.1199438,-9.164194836572833
Nagga,21996.0,Région de Marrakech-Safi,32.05005105,-9.0563308350388
Laamamra,12025.0,Région de Marrakech-Safi,31.892429550000003,-8.968236207762065
El Ghiate,23109.0,Région de Marrakech-Safi,31.983495150000003,-9.144581241364417
Lamaachate,15830.0,Région de Marrakech-Safi,32.00081805,-9.32140330091061
Atouabet,10378.0,Région de Marrakech-Safi,31.9476115,-9.274482729238343
Youssoufia,65669.0,Région de Marrakech-Safi,32.245801,-8.532439
Echemmaia,26547.0,Région de Marrakech-Safi,32.06631715,-8.644987419771343
Jnane Bouih,19755.0,Région de Marrakech-Safi,31.96716275,-8.72910315757468
Jdour,19390.0,Région de Marrakech-Safi,32.109970950000005,-8.76404744357136
Sidi Chiker,20291.0,Région de Marrakech-Safi,31.82294775,-8.613423889898524
Ighoud,22080.0,Région de Marrakech-Safi,31.859189,-8.881157
El Gantour,17270.0,Région de Marrakech-Safi,32.227266,-8.455424738364187
Esbiaat,14662.0,Région de Marrakech-Safi,32.199248749999995,-8.641356724054798
Ras El Ain,19089.0,Région de Marrakech-Safi,31.9489581,-8.48495620943801
Atiamim,6774.0,Région de Marrakech-Safi,32.07781655,-8.544638972842879
Lakhoualqa,14621.0,Région de Marrakech-Safi,32.06184455,-8.364740566120314
Errachidia,97687.0,Région de Drâa-Tafilalet,31.929089,-4.4340807
Arfoud,28912.0,Région de Drâa-Tafilalet,31.4324061,-4.2342572
Goulmima,14624.0,Région de Drâa-Tafilalet,31.692627,-4.953262
Jorf,11865.0,Région de Drâa-Tafilalet,31.4948858,-4.4049174
Moulay Ali Cherif,22082.0,Région de Drâa-Tafilalet,31.284735,-4.266987
Boudnib,13411.0,Région de Drâa-Tafilalet,31.951733,-3.607987
Tinejdad,9528.0,Région de Drâa-Tafilalet,31.510201,-5.03382
Es-Sifa,6531.0,Région de Drâa-Tafilalet,31.32897955,-4.30199084590513
Aarab Sebbah Ziz,20538.0,Région de Drâa-Tafilalet,31.4637845,-4.2169132
Aarab Sebbah Gheris,4758.0,Région de Drâa-Tafilalet,31.4168898,-4.326069
Fezna,4400.0,Région de Drâa-Tafilalet,31.56107335,-4.4552167960111415
Bni M'hamed-Sijelmassa,11925.0,Région de Drâa-Tafilalet,31.22601485,-4.164101279035814
Er-Rissani,4353.0,Région de Drâa-Tafilalet,31.2618886,-3.9593135052508255
Es-Sfalat,8586.0,Région de Drâa-Tafilalet,31.236471350000002,-4.327453576281444
Et-Taous,9360.0,Région de Drâa-Tafilalet,30.862930499999997,-4.069296792866016
Sidi Ali,1973.0,Région de Drâa-Tafilalet,30.59582215,-4.686025435114783
Aoufous,8888.0,Région de Drâa-Tafilalet,31.687792,-4.178487
Er-Rteb,12852.0,Région de Drâa-Tafilalet,31.613662750000003,-4.19304828907905
Oued Naam,5708.0,Région de Drâa-Tafilalet,31.8990448,-3.61235005933536
Chorfa M'daghra,18171.0,Région de Drâa-Tafilalet,31.8855388,-4.3660348
Lkheng,18381.0,Région de Drâa-Tafilalet,31.93045475,-4.547005759187174
Gheris Es-Soufli,6877.0,Région de Drâa-Tafilalet,31.7021001,-4.816207022760709
Gheris El Ouloui,12193.0,Région de Drâa-Tafilalet,31.6987408,-4.9770737
Tadighoust,6018.0,Région de Drâa-Tafilalet,31.8978842,-4.835473239744409
Amellagou,4711.0,Région de Drâa-Tafilalet,32.022717650000004,-4.899665019223016
Aghbalou-N'kerdous,10675.0,Région de Drâa-Tafilalet,31.67675225,-5.332530427880663
Melaab,17230.0,Région de Drâa-Tafilalet,31.4834445,-4.756246215108022
Ferkla Es-Soufla,11886.0,Région de Drâa-Tafilalet,31.583541349999997,-5.0179669560677205
Ferkla El Oulia,23449.0,Région de Drâa-Tafilalet,31.441917850000003,-5.067656352618286
Ouarzazate,79218.0,Région de Drâa-Tafilalet,30.920193,-6.910923
Taznakht,8268.0,Région de Drâa-Tafilalet,30.5772847,-7.204837
Amerzgane,8765.0,Région de Drâa-Tafilalet,31.044795,-7.211094
Ait Zineb,10530.0,Région de Drâa-Tafilalet,30.9888447,-7.1348
Telouet,12396.0,Région de Drâa-Tafilalet,31.289901,-7.240707
Ighrem N'ougdal,13727.0,Région de Drâa-Tafilalet,31.228184,-7.423589
Tidili,14841.0,Région de Drâa-Tafilalet,30.682037,-9.4961601
Iznaguen,11953.0,Région de Drâa-Tafilalet,30.4210438,-7.4325047
Ouisselsate,12471.0,Région de Drâa-Tafilalet,30.5165819,-7.194333414571924
Khouzama,7401.0,Région de Drâa-Tafilalet,30.8849547,-7.549075319050134
Siroua,8586.0,Région de Drâa-Tafilalet,30.757746,-7.29213
Tarmigt,46963.0,Région de Drâa-Tafilalet,30.853059199999997,-6.935886943007194
Idelsane,8680.0,Région de Drâa-Tafilalet,31.001989,-6.6506471
Skoura Ahl El Oust,24053.0,Région de Drâa-Tafilalet,31.0487448,-6.492473570991186
Toundoute,10177.0,Région de Drâa-Tafilalet,31.266118,-6.589762
Imi-N'oulaoune,19734.0,Région de Drâa-Tafilalet,31.41357335,-6.525407645163506
Ghassate,7169.0,Région de Drâa-Tafilalet,31.170753,-6.810446
Midelt,62648.0,Région de Drâa-Tafilalet,32.680347,-4.739897
Er-Rich,28462.0,Région de Drâa-Tafilalet,32.25677,-4.498189
Boumia,21713.0,Région de Drâa-Tafilalet,32.725274,-5.101769
Guers Tiaallaline,15019.0,Région de Drâa-Tafilalet,32.2214338,-4.350295327304085
M'zizel,7502.0,Région de Drâa-Tafilalet,32.17067795,-4.7027794719876646
Sidi Aayad,11562.0,Région de Drâa-Tafilalet,32.304038,-4.5395823
En-Nzala,4873.0,Région de Drâa-Tafilalet,32.455385899999996,-4.4135965494533185
Zaouiat Sidi Hamza,5248.0,Région de Drâa-Tafilalet,32.4430923,-4.7260951
Guir,4363.0,Région de Drâa-Tafilalet,32.30939455,-3.8997437516803224
Gourrama,15952.0,Région de Drâa-Tafilalet,32.341425,-4.073812
Ait Yahya,4293.0,Région de Drâa-Tafilalet,32.249122400000005,-5.171082376171437
Amouguer,4363.0,Région de Drâa-Tafilalet,32.26827695,-4.860811872999568
Imilchil,9164.0,Région de Drâa-Tafilalet,32.156119,-5.633585
Bou-Azmou,10100.0,Région de Drâa-Tafilalet,32.028282000000004,-5.5026712568972265
Outerbat,6763.0,Région de Drâa-Tafilalet,32.112573499999996,-5.259628056153884
Mibladen,3052.0,Région de Drâa-Tafilalet,32.765627,-4.63014
Amersid,6023.0,Région de Drâa-Tafilalet,32.720945,-4.439586
Ait Izdeg,7794.0,Région de Drâa-Tafilalet,32.64870325,-4.760482223540702
Ait Ayach,12932.0,Région de Drâa-Tafilalet,32.670078,-4.9553486
Ait Ben Yacoub,3743.0,Région de Drâa-Tafilalet,32.9903967,-4.8877467
Itzer,10513.0,Région de Drâa-Tafilalet,32.879137,-5.054056
Zaida,14454.0,Région de Drâa-Tafilalet,32.8016336,-4.968958735006813
Tanourdi,2834.0,Région de Drâa-Tafilalet,32.81762675,-5.1331894476258775
Tizi N'ghachou,2836.0,Région de Drâa-Tafilalet,32.7920409,-5.2464658607839665
Aghbalou,10296.0,Région de Drâa-Tafilalet,32.6790387,-5.2959993
Sidi Yahia Ou Youssef,4877.0,Région de Drâa-Tafilalet,Not Found,Not Found
Tounfite,13424.0,Région de Drâa-Tafilalet,32.472297,-5.2439123
Agoudim,3826.0,Région de Drâa-Tafilalet,32.3815877,-5.1787874
Anemzi,5140.0,Région de Drâa-Tafilalet,32.3241829,-5.2664076
Tinghir,44239.0,Région de Drâa-Tafilalet,31.52133,-5.531164
Boumalne-Dades,12391.0,Région de Drâa-Tafilalet,31.372661,-5.986644
Kalâat M'gouna,17737.0,Région de Drâa-Tafilalet,31.237704,-6.129345
Ait Sedrate Jebel Soufla,5228.0,Région de Drâa-Tafilalet,Not Found,Not Found
Ait Sedrate Jbel El Oulia,4978.0,Région de Drâa-Tafilalet,31.6430431,-6.029775724492757
Ait Youl,4680.0,Région de Drâa-Tafilalet,31.419727,-6.008253
Ikniouen,17707.0,Région de Drâa-Tafilalet,31.1708105,-5.6739707
M'semrir,8686.0,Région de Drâa-Tafilalet,31.696181,-5.818733
Tilmi,11691.0,Région de Drâa-Tafilalet,31.818936,-5.772123
Ait Sedrate Sahl Charkia,15506.0,Région de Drâa-Tafilalet,31.2480311,-6.0904589
Ait Sedrate Sahl El-Gharbia,19985.0,Région de Drâa-Tafilalet,31.1884048,-6.2026369
Ait Ouassif,8885.0,Région de Drâa-Tafilalet,31.2336285,-6.1500341
Souk Lakhmis Dades,16154.0,Région de Drâa-Tafilalet,31.3089683,-6.0289593
Ighil N'oumgoun,23218.0,Région de Drâa-Tafilalet,31.411416,-6.231135
Imider,4296.0,Région de Drâa-Tafilalet,31.40162,-5.816478031908215
Ouaklim,12050.0,Région de Drâa-Tafilalet,31.448677449999998,-5.6407374970020445
Toudgha El Oulia,5084.0,Région de Drâa-Tafilalet,31.57737475,-5.545802839704034
Taghzoute N'ait Atta,15654.0,Région de Drâa-Tafilalet,31.4554288,-5.4227293
Ait El Farsi,5653.0,Région de Drâa-Tafilalet,31.3506996,-5.3032128
Toudgha Essoufla,13890.0,Région de Drâa-Tafilalet,31.46034305,-5.485641196073248
Alnif,20978.0,Région de Drâa-Tafilalet,31.116268,-5.16687
M'ssici,5455.0,Région de Drâa-Tafilalet,30.994593899999998,-4.871137890840954
H'ssyia,11713.0,Région de Drâa-Tafilalet,30.72459575,-5.154796426153119
Ait Hani,11120.0,Région de Drâa-Tafilalet,31.774839,-5.4583929
Assoul,6827.0,Région de Drâa-Tafilalet,31.94966,-5.202998
Zagora,42294.0,Région de Drâa-Tafilalet,30.3279053,-5.8369957
Agdz,11189.0,Région de Drâa-Tafilalet,30.6943155,-6.4489453
Bouzeroual,9972.0,Région de Drâa-Tafilalet,30.4952966,-6.038031
Tinzouline,14652.0,Région de Drâa-Tafilalet,30.5051133,-6.100842
Bleida,4309.0,Région de Drâa-Tafilalet,30.2517299,-6.445010428097252
Errouha,9521.0,Région de Drâa-Tafilalet,30.3874444,-5.7920584
Ternata,15911.0,Région de Drâa-Tafilalet,30.28924785,-5.984634250554043
Bni Zoli,16241.0,Région de Drâa-Tafilalet,30.442198,-5.8962215
Taftechna,4661.0,Région de Drâa-Tafilalet,30.6728863,-5.9525433
Tamegroute,19207.0,Région de Drâa-Tafilalet,30.2619074,-5.6795091
Fezouata,8001.0,Région de Drâa-Tafilalet,30.2152171,-5.600024739344512
M'hamid El Ghizlane,6664.0,Région de Drâa-Tafilalet,29.825359,-5.721689
Tagounite,15122.0,Région de Drâa-Tafilalet,29.978887,-5.5832329
Ktaoua,6157.0,Région de Drâa-Tafilalet,29.9492495,-5.5101834
Tamezmoute,10953.0,Région de Drâa-Tafilalet,30.807104099999997,-6.080193277038067
Oulad Yahia Lagraire,10686.0,Région de Drâa-Tafilalet,30.5810956,-6.1512815
Afra,7554.0,Région de Drâa-Tafilalet,30.7109191,-6.2352243
Mezguita,7084.0,Région de Drâa-Tafilalet,30.6806224,-6.3825593
Tansifte,11389.0,Région de Drâa-Tafilalet,30.64182075,-6.672874314405705
Afella N'dra,6657.0,Région de Drâa-Tafilalet,30.7589021,-6.4551967
Taghbalte,9176.0,Région de Drâa-Tafilalet,30.5744771,-5.315274975264275
Ait Boudaoud,4757.0,Région de Drâa-Tafilalet,30.6104695,-5.472054142977256
Tazarine,13895.0,Région de Drâa-Tafilalet,33.91246245000001,-4.125183535549208
N'kob,7742.0,Région de Drâa-Tafilalet,30.9973542,-5.812244645598242
Ait Ouallal,11751.0,Région de Drâa-Tafilalet,30.88359465,-5.960187968025805
Agadir,504768.0,Région de Souss-Massa,30.4205162,-9.5838532
Amskroud,9648.0,Région de Souss-Massa,30.531111,-9.330927
Idmine,2715.0,Région de Souss-Massa,30.6102148,-9.3488077
Drargua,107621.0,Région de Souss-Massa,30.3820295,-9.4764214
Aourir,46032.0,Région de Souss-Massa,30.498085,-9.671097
Taghazout,4861.0,Région de Souss-Massa,30.544722,-9.709128
Aqsri,3333.0,Région de Souss-Massa,30.631808149999998,-9.496045757015874
Imouzzer,4087.0,Région de Souss-Massa,30.6748722,-9.4791148
Tiqqi,6378.0,Région de Souss-Massa,30.7449807,-9.3283253
Tadrart,2899.0,Région de Souss-Massa,30.770693,-9.461373
Aziar,2053.0,Région de Souss-Massa,30.7727487,-9.5578687
Tamri,19790.0,Région de Souss-Massa,30.6966311,-9.8250377
Imsouane,7246.0,Région de Souss-Massa,30.841899,-9.819964
Inezgane,137512.0,Région de Souss-Massa,30.3562929,-9.5459347
Ait Melloul,210870.0,Région de Souss-Massa,30.3387947,-9.5044701
Dcheira El Jihadia,113041.0,Région de Souss-Massa,30.375281,-9.528495
Lqliaa,107133.0,Région de Souss-Massa,30.29865,-9.4620176
Temsia,52663.0,Région de Souss-Massa,30.363795,-9.417027
Oulad Dahou,15697.0,Région de Souss-Massa,30.3637692,-9.3210488
Ait Baha,6007.0,Région de Souss-Massa,30.070334,-9.154578
Biougra,50626.0,Région de Souss-Massa,30.215517,-9.368543
Ait Amira,113236.0,Région de Souss-Massa,30.1768183,-9.4891392
Sidi Bibi,72929.0,Région de Souss-Massa,30.237084,-9.526828
Ait Mzal,3305.0,Région de Souss-Massa,30.0551903,-9.1113053
Hilala,1858.0,Région de Souss-Massa,30.063412,-9.0152592
Tassegdelt,4046.0,Région de Souss-Massa,30.1474648,-9.102183019616694
Ait Ouadrim,4976.0,Région de Souss-Massa,30.0397683,-9.2327858
Sidi Abdallah El Bouchouari,6604.0,Région de Souss-Massa,29.9633019,-9.2800785
Targua-Ntouchka,3371.0,Région de Souss-Massa,29.9069395,-9.168071576983209
Tanalt,2138.0,Région de Souss-Massa,29.774917,-9.168485
Aouguenz,2941.0,Région de Souss-Massa,29.8202708,-9.1850595
Ida-Ougnidif,2095.0,Région de Souss-Massa,29.8606744,-9.0087683
Tizi Ntakoucht,1098.0,Région de Souss-Massa,29.958253,-9.1124628
Imi-Mqourn,10365.0,Région de Souss-Massa,30.1670025,-9.237249
Sidi Boushab,8386.0,Région de Souss-Massa,30.0746914,-9.2799852
Oued Essafa,83442.0,Région de Souss-Massa,Not Found,Not Found
Belfaâ,36774.0,Région de Souss-Massa,30.0484384,-9.5641729
Inchaden,42724.0,Région de Souss-Massa,30.0987668,-9.5539825
Massa,17946.0,Région de Souss-Massa,29.972463,-9.6409
Sidi Ouassay,10050.0,Région de Souss-Massa,30.056555,-9.68548
Ait Milk,8706.0,Région de Souss-Massa,29.9518671,-9.386831
Taroudannt,83496.0,Région de Souss-Massa,30.4719787,-8.8669712
Oulad Teima,100284.0,Région de Souss-Massa,30.39547065,-9.21053347914265
Irherm,4127.0,Région de Souss-Massa,30.089004,-8.460942
El Guerdane,13747.0,Région de Souss-Massa,30.3663044,-9.021054044977756
Ait Iaaza,17339.0,Région de Souss-Massa,30.5064594,-8.7911541
Oulad Berhil,30330.0,Région de Souss-Massa,30.6364,-8.477589
Taliouine,7040.0,Région de Souss-Massa,30.5314629,-7.9215207
Aoulouz,21502.0,Région de Souss-Massa,30.673307,-8.180695
Sidi Mzal,1373.0,Région de Souss-Massa,29.8002418,-8.8892131
Ait Abdallah,1635.0,Région de Souss-Massa,29.8138163,-8.7686331
Toufelaazt,1061.0,Région de Souss-Massa,30.066693,-8.8264225
Tabia,814.0,Région de Souss-Massa,29.996342,-8.882199095053423
Toumliline,1463.0,Région de Souss-Massa,29.9504114,-8.744958397923263
Imaouen,1969.0,Région de Souss-Massa,29.9955299,-8.6555315
Tindine,1853.0,Région de Souss-Massa,30.1099755,-8.6516276
Sidi Boaal,2180.0,Région de Souss-Massa,29.9444124,-8.513655
Amalou,2188.0,Région de Souss-Massa,30.1919886,-8.747994
Tataoute,3767.0,Région de Souss-Massa,30.2472055,-8.708513
Azaghar N'irs,4009.0,Région de Souss-Massa,30.3043118,-8.2474198
Adar,3043.0,Région de Souss-Massa,30.1221559,-8.3820408
Imi N'tayart,973.0,Région de Souss-Massa,30.32871,-8.3929832
Tisfane,1414.0,Région de Souss-Massa,30.1645032,-8.5474065
Nihit,1456.0,Région de Souss-Massa,30.3127531,-8.514602
Oualqadi,1477.0,Région de Souss-Massa,30.20504585,-8.5018859297486
Sidi Boumoussa,23160.0,Région de Souss-Massa,30.380696450000002,-9.263396655856035
Ahl Ramel,7496.0,Région de Souss-Massa,30.280871,-9.156213
Sidi Ahmed Ou Amar,17914.0,Région de Souss-Massa,30.4197429,-9.1645026
Lagfifat,19471.0,Région de Souss-Massa,30.31300685,-9.261240535724728
El Koudia El Beida,23666.0,Région de Souss-Massa,30.3713969,-9.1382467
Lakhnafif,10706.0,Région de Souss-Massa,30.416853,-9.038577
Lamhadi,11927.0,Région de Souss-Massa,30.32369615,-8.998833903481232
Machraa El Ain,12243.0,Région de Souss-Massa,30.4280838,-8.8976063
Assads,3592.0,Région de Souss-Massa,30.2104346,-8.8814185
Tidsi-Nissendalene,4395.0,Région de Souss-Massa,30.1807576,-8.967814699341808
Argana,4123.0,Région de Souss-Massa,30.780384,-9.123665
Bigoudine,4174.0,Région de Souss-Massa,30.718726,-9.210342
Talmakante,3336.0,Région de Souss-Massa,30.8506926,-8.9339059
Imilmaiss,4967.0,Région de Souss-Massa,30.8727702,-8.8319746
Sidi Moussa Lhamri,17673.0,Région de Souss-Massa,30.4725744,-9.1583383
Eddir,7781.0,Région de Souss-Massa,30.5520879,-9.2725112
Issen,13254.0,Région de Souss-Massa,30.4314854,-9.2577016
Ahmar Laglalcha,21659.0,Région de Souss-Massa,30.452901,-8.982032
Lamnizla,3427.0,Région de Souss-Massa,30.611509,-9.078787
Zaouia Sidi Tahar,13479.0,Région de Souss-Massa,30.4796993,-9.0795615
Ida Ou Moumen,5833.0,Région de Souss-Massa,30.5955127,-9.005832
Tamaloukte,4241.0,Région de Souss-Massa,30.61678865,-8.827447147815377
Imoulass,6889.0,Région de Souss-Massa,30.7436275,-8.7638946
Tafraouten,7026.0,Région de Souss-Massa,30.705029,-8.882564
Ait Makhlouf,4135.0,Région de Souss-Massa,30.602256,-8.9101093
Sidi Dahmane,14878.0,Région de Souss-Massa,30.4968041,-8.8219795
Freija,9005.0,Région de Souss-Massa,30.4866647,-8.7879564
Tiout,3017.0,Région de Souss-Massa,30.3894897,-8.6925848
Sidi Ahmed Ou Abdallah,4038.0,Région de Souss-Massa,30.329881399999998,-8.608839917311794
Ait Igas,10378.0,Région de Souss-Massa,30.542391,-8.719923
Tazemmourt,6856.0,Région de Souss-Massa,30.4078449,-8.8283479
Bounrar,4995.0,Région de Souss-Massa,30.310766100000002,-8.768664417207503
Sidi Borja,10736.0,Région de Souss-Massa,30.4575536,-8.8338857
Igoudar Mnabha,10974.0,Région de Souss-Massa,30.6157474,-8.4482617
Tinzart,6127.0,Région de Souss-Massa,30.6323346,-8.390252742115777
Lamhara,11622.0,Région de Souss-Massa,30.5697253,-8.4881029
Igli,13832.0,Région de Souss-Massa,30.5521171,-8.5495505
Oulad Aissa,11732.0,Région de Souss-Massa,32.923602599999995,-8.711492490718065
Ida Ou Gailal,6036.0,Région de Souss-Massa,30.637304,-8.632228
Sidi Abdellah Ou Said,3003.0,Région de Souss-Massa,30.7525846,-8.6831717
Talgjount,5234.0,Région de Souss-Massa,30.761703750000002,-8.580161871015031
Tizi N'test,3588.0,Région de Souss-Massa,30.8333941,-8.451152640536836
Ouneine,7042.0,Région de Souss-Massa,30.8676101,-8.1856586
Tafingoult,5670.0,Région de Souss-Massa,30.763821,-8.388828
Sidi Ouaaziz,9241.0,Région de Souss-Massa,30.7103476,-8.3402882
Tigouga,3867.0,Région de Souss-Massa,30.8356788,-8.592605999739309
Ida-Ougoummad,7543.0,Région de Souss-Massa,30.7119359,-8.2364838
El Faid,10559.0,Région de Souss-Massa,30.612356,-8.208654
Arazane,7883.0,Région de Souss-Massa,30.46598125,-8.535292544696421
Toughmart,5035.0,Région de Souss-Massa,30.3932895,-8.3555932
Tisrasse,5608.0,Région de Souss-Massa,30.7257268,-8.0877937
Ouzioua,8141.0,Région de Souss-Massa,30.7296902,-8.0349115
Toubkal,8538.0,Région de Souss-Massa,31.0598318,-7.9149438
Ahl Tifnoute,5196.0,Région de Souss-Massa,30.965481,-7.826771
Iguidi,7949.0,Région de Souss-Massa,30.7464811,-7.9262803
Taouyalte,7097.0,Région de Souss-Massa,30.8071567,-7.7892437
Askaouen,7046.0,Région de Souss-Massa,30.7387362,-7.7767754
Tassousfi,5998.0,Région de Souss-Massa,30.4490092,-7.897276451678454
Sidi Hsaine,6716.0,Région de Souss-Massa,30.4686279,-7.7752278
Assaisse,5934.0,Région de Souss-Massa,30.5698793,-7.62333528645069
Agadir Melloul,7518.0,Région de Souss-Massa,30.2321967,-7.794225
Assaki,8048.0,Région de Souss-Massa,30.5599095,-8.0264883
Zagmouzen,7480.0,Région de Souss-Massa,30.60953385,-7.817312287056739
Tizgzaouine,4653.0,Région de Souss-Massa,30.3893193,-8.044445489639356
Azrar,4242.0,Région de Souss-Massa,30.193222,-8.017488
Tiznit,86595.0,Région de Souss-Massa,29.698624,-9.7312815
Tafraout,6124.0,Région de Souss-Massa,29.720472,-8.9744529
Ammelne,2782.0,Région de Souss-Massa,29.753625,-8.967174
Tarsouat,2001.0,Région de Souss-Massa,29.584446,-9.026641
Tassrirt,1130.0,Région de Souss-Massa,29.606351,-8.916288
Afella Ighir,2446.0,Région de Souss-Massa,29.503012,-8.817405
Irigh N'tahala,1417.0,Région de Souss-Massa,29.63941,-9.090052
Ait Ouafqa,3376.0,Région de Souss-Massa,29.41205885,-9.155176992415283
Tnine Aday,1696.0,Région de Souss-Massa,29.703794,-9.27362
Tafraout El Mouloud,2014.0,Région de Souss-Massa,29.636628,-9.244717
Anzi,6199.0,Région de Souss-Massa,29.6752514,-9.34889863217565
Tighmi,5492.0,Région de Souss-Massa,29.5826758,-9.419788
Ait Issafen,2497.0,Région de Souss-Massa,29.594843,-9.342264
Arbaa Ait Ahmed,3918.0,Région de Souss-Massa,29.8001645,-9.3562603
Tizoughrane,3725.0,Région de Souss-Massa,29.581159,-9.184519
Ida Ou Gougmar,4250.0,Région de Souss-Massa,29.509444,-9.338111
Sidi Ahmed Ou Moussa,3339.0,Région de Souss-Massa,29.503973,-9.455214
Arbaa Rasmouka,4620.0,Région de Souss-Massa,29.801567,-9.549286
El Maader El Kabir,6009.0,Région de Souss-Massa,29.7600856,-9.6570983
Reggada,12521.0,Région de Souss-Massa,29.5422725,-9.6951877
Ouijjane,4079.0,Région de Souss-Massa,29.648582,-9.536986
Sidi Bouabdelli,4610.0,Région de Souss-Massa,29.481411,-9.83042
Bounaamane,8932.0,Région de Souss-Massa,29.529984,-9.81502
Tnine Aglou,9950.0,Région de Souss-Massa,29.802491,-9.83336
Arbaa Sahel,8820.0,Région de Souss-Massa,29.6048891,-9.9172448
Tata,19544.0,Région de Souss-Massa,29.746392,-7.9696051
Akka,5575.0,Région de Souss-Massa,29.391861,-8.256762
Fam El Hisn,5908.0,Région de Souss-Massa,29.013582,-8.886818
Foum Zguid,8660.0,Région de Souss-Massa,30.085933,-6.874903
